Type_OSM,id_OSM,lon,lat,tuple Lat-lon,Catégories,Sous_Cat,name
node,5062882135,3.0977644,50.6244562,"(50.6244562,3.0977644)",Slow_transport,bicycle_parking,1 Rue du Chevalier de la Barre
node,10028391269,3.0694886,50.6202744,"(50.6202744,3.0694886)",Entertainment,fast_food,1000 Pâtes
node,9683425653,3.0437168,50.6316521,"(50.6316521,3.0437168)",Entertainment,fast_food,121 Food street
node,5573934058,3.0992739,50.6248791,"(50.6248791,3.0992739)",Slow_transport,bicycle_parking,128 Rue Chanzy
node,5635635119,3.1104683,50.6282617,"(50.6282617,3.1104683)",Slow_transport,bicycle_parking,14 Rue du Théatre de Verdure
node,4732035051,3.1016915,50.6225839,"(50.6225839,3.1016915)",Slow_transport,bicycle_parking,162 Rue Ferdinand Mathias
node,5062882136,3.0976826,50.6244477,"(50.6244477,3.0976826)",Slow_transport,bicycle_parking,2 Rue du Chevalier de la Barre
node,5062882137,3.1005913,50.6250251,"(50.6250251,3.1005913)",Slow_transport,bicycle_parking,215 Rue Chanzy
node,9985932828,3.0622238,50.6330646,"(50.6330646,3.0622238)",Daily_Life,hairdresser,235 Barber Street
node,5573934056,3.0990562,50.6247401,"(50.6247401,3.0990562)",Slow_transport,bicycle_parking,247 Rue Ferrer
node,5573934057,3.0989420,50.6247156,"(50.6247156,3.0989420)",Slow_transport,bicycle_parking,249 Rue Ferrer
node,3002299471,3.0604380,50.6307594,"(50.6307594,3.0604380)",Daily_Life,hairdresser,2nd Street
node,4442146051,3.0692959,50.6361629,"(50.6361629,3.0692959)",Entertainment,restaurant,3 Brasseurs
node,5252920083,3.1115606,50.6281934,"(50.6281934,3.1115606)",Slow_transport,bicycle_parking,31T Rue Faidherbe
node,5788114779,3.0162586,50.6426699,"(50.6426699,3.0162586)",Entertainment,fast_food,411 Avenue Burger
node,9160545170,3.0573017,50.6403932,"(50.6403932,3.0573017)",Entertainment,restaurant,49R
node,9925441198,3.0236740,50.6329841,"(50.6329841,3.0236740)",Slow_transport,bicycle_parking,5 arceaux
node,8245616031,3.0224444,50.6332693,"(50.6332693,3.0224444)",Slow_transport,bicycle_parking,5 arceaux pour 10 vélos
node,9616194039,3.0579995,50.6444273,"(50.6444273,3.0579995)",Entertainment,restaurant,54 THAI
node,5383857937,3.0591244,50.6360263,"(50.6360263,3.0591244)",Daily_Life,hairdresser,6ème Sens
node,5163093747,3.0594181,50.6312770,"(50.6312770,3.0594181)",Entertainment,fast_food,808 Mac & Cheese
node,8464276950,3.0622129,50.6370122,"(50.6370122,3.0622129)",Daily_Life,optician,A et B Olivier opticiens
way,85089288,3.0961454,50.6209952,"(50.6209952,3.0961454)",Entertainment,cafe,A la Barrière
node,7903185584,3.0429459,50.6235942,"(50.6235942,3.0429459)",Entertainment,restaurant,À la Brasserie
node,5581233573,3.0527446,50.6285989,"(50.6285989,3.0527446)",Shopping,interior_decoration,A la Florière
node,9548356274,3.0583348,50.6396090,"(50.6396090,3.0583348)",Entertainment,restaurant,A la table de Louise
node,2684794084,3.0669498,50.6427879,"(50.6427879,3.0669498)",Entertainment,restaurant,À Taaable !!
node,8962510833,3.0680798,50.6353299,"(50.6353299,3.0680798)",Healthcare,dentist,A. Benaddi
node,8940907600,3.0749517,50.6115805,"(50.6115805,3.0749517)",Shopping,shoes,A.P.O 59
node,7457174158,3.0614681,50.6387489,"(50.6387489,3.0614681)",Shopping,clothes,A+M Concept Store
node,2063752339,3.0600453,50.6395574,"(50.6395574,3.0600453)",Historic,attraction,Abbaye de Loos
node,2063752354,3.0606910,50.6396833,"(50.6396833,3.0606910)",Historic,attraction,Abbaye de Loos
node,2063752357,3.0601398,50.6397812,"(50.6397812,3.0601398)",Historic,attraction,Abbaye de Loos
node,6135647789,3.0612494,50.6406865,"(50.6406865,3.0612494)",Daily_Life,alcohol,Abbayes des saveurs
node,5614580893,3.1034982,50.6342517,"(50.6342517,3.1034982)",Daily_Life,butcher,Abilio & Cécilia DE SOUSA
way,210572578,3.0400984,50.6078602,"(50.6078602,3.0400984)",Slow_transport,bicycle_parking,Abri V'Lille CHU – Eurasanté
node,6189910740,3.1090093,50.6275631,"(50.6275631,3.1090093)",Slow_transport,bicycle_parking,Abri V'Lille Hellemmes
node,5528440223,3.0737490,50.6182630,"(50.6182630,3.0737490)",Slow_transport,bicycle_parking,Abri V'Lille Porte de Douai
way,384529336,3.0515936,50.6234968,"(50.6234968,3.0515936)",Slow_transport,bicycle_parking,Abris V'Lille Wazemmes
node,7528788463,3.0896554,50.6331794,"(50.6331794,3.0896554)",Daily_Life,hairdresser,Acceess
way,1106377010,3.0854172,50.6420969,"(50.6420969,3.0854172)",Daily_Life,hairdresser,Access Coiffure
node,5202232463,3.0577038,50.6307921,"(50.6307921,3.0577038)",Daily_Life,hairdresser,Access Coiffure
node,5325752881,3.0514936,50.6276023,"(50.6276023,3.0514936)",Daily_Life,hairdresser,Access Coiffure
node,7507475194,3.0615032,50.6379168,"(50.6379168,3.0615032)",Shopping,jewelry,Accessoir'in
node,5915571346,3.0453313,50.6446996,"(50.6446996,3.0453313)",Sport,sports_centre,Accro Lille
node,7456935965,3.0622392,50.6389968,"(50.6389968,3.0622392)",Shopping,clothes,Acoté
node,8464276956,3.0608788,50.6382919,"(50.6382919,3.0608788)",Daily_Life,optician,Acuitis Lille
node,7620261163,3.0658240,50.6348129,"(50.6348129,3.0658240)",Daily_Life,hairdresser,Addict
node,5856187380,3.0754346,50.6369988,"(50.6369988,3.0754346)",Sport,sports,Adidas
node,9278736195,3.0386434,50.6292540,"(50.6292540,3.0386434)",Education,University,Adimaker
node,7442520037,3.0648631,50.6407152,"(50.6407152,3.0648631)",Shopping,clothes,Adn vestiaire masculin
node,5383857934,3.0557294,50.6342709,"(50.6342709,3.0557294)",Daily_Life,optician,Adoc Optique
node,8975083449,3.0577533,50.6254572,"(50.6254572,3.0577533)",Education,University,Adonis
node,9931675658,3.0658779,50.6354273,"(50.6354273,3.0658779)",Shopping,perfumery,Adopt'
node,9984963921,3.0678551,50.6330896,"(50.6330896,3.0678551)",Daily_Life,hairdresser,Aduke
node,7456935966,3.0621325,50.6389827,"(50.6389827,3.0621325)",Shopping,cosmetics,Aesop
node,8871577618,3.0684950,50.6364146,"(50.6364146,3.0684950)",Entertainment,fast_food,Afri Call Food
node,6431771400,3.0586141,50.6388555,"(50.6388555,3.0586141)",Entertainment,bar,African Children
node,10214376818,3.0513607,50.6279425,"(50.6279425,3.0513607)",Shopping,cosmetics,Afro Beauty Store
node,6425860475,3.0541788,50.6325466,"(50.6325466,3.0541788)",Entertainment,bar,After Time's
node,7441780974,3.0638016,50.6391423,"(50.6391423,3.0638016)",Shopping,jewelry,Agatha
way,84929879,3.0785383,50.6350843,"(50.6350843,3.0785383)",Office,office,Agence Régionale de Santé
node,6557264547,3.0627106,50.6389447,"(50.6389447,3.0627106)",Shopping,clothes,Agnès B.
node,5287188602,3.0607369,50.6383387,"(50.6383387,3.0607369)",Shopping,clothes,Aigle
node,6447191881,3.0506652,50.6266330,"(50.6266330,3.0506652)",Shopping,music,Air du temps
way,40875629,3.0636431,50.6324316,"(50.6324316,3.0636431)",Entertainment,restaurant,Akira
way,85091409,3.1020188,50.6337307,"(50.6337307,3.1020188)",Daily_Life,butcher,Akoudad
node,5325754306,3.0473569,50.6263258,"(50.6263258,3.0473569)",Entertainment,restaurant,Al Fassia
node,6915068921,3.0101615,50.6334012,"(50.6334012,3.0101615)",Entertainment,restaurant,Al'Carbone
node,5204544329,3.0492584,50.6272934,"(50.6272934,3.0492584)",Daily_Life,optician,Alain Afflelou
node,6335434117,2.9786196,50.6513249,"(50.6513249,2.9786196)",Daily_Life,optician,Alain Afflelou
node,7441428396,3.0640135,50.6382946,"(50.6382946,3.0640135)",Shopping,clothes,Alain Figaret
node,5256256922,3.0473695,50.6137020,"(50.6137020,3.0473695)",Daily_Life,bakery,albaraka
node,3084545353,3.0023735,50.6474409,"(50.6474409,3.0023735)",Public_transport,platform,Albert Thomas
node,9006107374,3.0568832,50.6421724,"(50.6421724,3.0568832)",Daily_Life,florist,Alchimie Fleurs et Objets
way,108183608,3.0061990,50.6441480,"(50.6441480,3.0061990)",Daily_Life,supermarket,ALDI
node,5202232443,3.0544625,50.6312657,"(50.6312657,3.0544625)",Daily_Life,supermarket,ALDI
node,5745648148,3.0193398,50.6397086,"(50.6397086,3.0193398)",Daily_Life,hairdresser,Alex Coiffure
node,6305966452,3.0144401,50.6396170,"(50.6396170,3.0144401)",Daily_Life,hairdresser,Alex Coiffure
node,6032496267,3.0616598,50.6378510,"(50.6378510,3.0616598)",Daily_Life,hairdresser,Alexandre Bruno
node,6904970879,3.0797506,50.6221332,"(50.6221332,3.0797506)",Healthcare,doctors,Alexandre Durak
node,4416740147,3.0207151,50.6338901,"(50.6338901,3.0207151)",Entertainment,restaurant,Alexens
node,9094264574,3.0682661,50.6283842,"(50.6283842,3.0682661)",Healthcare,dentist,Alexis Moreau
way,84402214,3.0531716,50.6218896,"(50.6218896,3.0531716)",Entertainment,restaurant,Alhambra
node,4421739671,3.0548154,50.6323834,"(50.6323834,3.0548154)",Entertainment,fast_food,Ali Baba
node,5163090900,3.0557185,50.6306095,"(50.6306095,3.0557185)",Entertainment,fast_food,Ali Baba
node,9699980717,3.0638739,50.6374907,"(50.6374907,3.0638739)",Entertainment,bar,Alices
node,9675632251,3.0214391,50.6294700,"(50.6294700,3.0214391)",Entertainment,restaurant,Alien
node,6875926430,3.0101129,50.6461282,"(50.6461282,3.0101129)",Daily_Life,hairdresser,Alizé coiffeur conseil
node,3629249199,3.0533082,50.6329563,"(50.6329563,3.0533082)",Entertainment,restaurant,All Pommodoro
node,314063069,3.0649561,50.6417128,"(50.6417128,3.0649561)",Shopping,musical_instrument,Allegro Partition
way,85087808,3.1039137,50.6289953,"(50.6289953,3.1039137)",Shopping,retail,Allianz
way,41290682,3.0418392,50.6253186,"(50.6253186,3.0418392)",Entertainment,restaurant,Allo Couscous
node,9987944263,3.0397167,50.6255082,"(50.6255082,3.0397167)",Daily_Life,florist,Allo Fleurs
node,5271386654,3.0575245,50.6307220,"(50.6307220,3.0575245)",Shopping,travel_agency,Alloa Voyages
node,7387324347,3.0439144,50.6311792,"(50.6311792,3.0439144)",Sport,sports,Allway Sport
node,2694662653,3.0892872,50.6321180,"(50.6321180,3.0892872)",Entertainment,bar,Alto Post
way,108186777,2.9819360,50.6448385,"(50.6448385,2.9819360)",Daily_Life,florist,Amaryllis
node,7442270824,3.0640263,50.6393061,"(50.6393061,3.0640263)",Shopping,clothes,American Vintage
node,8964309475,3.0322921,50.6269495,"(50.6269495,3.0322921)",Education,University,AMOS - Sport Business School
node,8988581091,3.0669823,50.6351757,"(50.6351757,3.0669823)",Shopping,travel_agency,Ampa Voyages
node,1462139492,3.0453289,50.6332418,"(50.6332418,3.0453289)",Culture,theatre,Amphithéatre Teillard de Chardin
node,617240502,3.0666219,50.6380195,"(50.6380195,3.0666219)",Entertainment,bar,Amul solo
node,6309298778,3.0092713,50.6350018,"(50.6350018,3.0092713)",Public_transport,platform,Anatole France
node,6915059222,3.0092533,50.6354930,"(50.6354930,3.0092533)",Public_transport,platform,Anatole France
node,6984726108,3.0081693,50.6347726,"(50.6347726,3.0081693)",Public_transport,platform,Anatole France
node,2063752386,3.0562768,50.6385292,"(50.6385292,3.0562768)",Historic,attraction,Ancien couvent des Madelonnettes
node,2063752391,3.0564705,50.6385583,"(50.6385583,3.0564705)",Historic,attraction,Ancien couvent des Madelonnettes
node,2063752394,3.0548730,50.6379420,"(50.6379420,3.0548730)",Historic,attraction,Ancien couvent des Minines
node,8984048737,3.0501689,50.6344635,"(50.6344635,3.0501689)",Historic,attraction,Ancien fort Saint-Sauveur
node,2063752408,3.0612227,50.6388459,"(50.6388459,3.0612227)",Historic,attraction,Ancien hôtel
node,8987218774,3.0586666,50.6379771,"(50.6379771,3.0586666)",Historic,attraction,Ancien siège social de la Société des Mines de Lens
node,8987257061,3.0667617,50.6433801,"(50.6433801,3.0667617)",Historic,attraction,Ancienne chapelle des Carmes Déchaussées
node,5554322932,3.1015101,50.6232058,"(50.6232058,3.1015101)",Slow_transport,bicycle_parking,Ancienne église Notre-Dame de Lourdes
way,85101296,3.1013140,50.6230757,"(50.6230757,3.1013140)",Religious,church,Ancienne église Notre-Dame de Lourdes
way,85101296,3.1013140,50.6230757,"(50.6230757,3.1013140)",Religious,church,Ancienne église Notre-Dame de Lourdes
node,5554322931,3.1015660,50.6231620,"(50.6231620,3.1015660)",Slow_transport,bicycle_parking,Ancienne église Notre-Dame de Lourdes 2
way,50363681,3.0631933,50.6447920,"(50.6447920,3.0631933)",Religious,church,Ancienne église Sainte-Marie-Madeleine
way,85092649,3.1150382,50.6270301,"(50.6270301,3.1150382)",Administration,Mairie,Ancienne Mairie
node,3084335564,2.9908201,50.6383594,"(50.6383594,2.9908201)",Public_transport,platform,André Thoor
node,3084335567,2.9909143,50.6386968,"(50.6386968,2.9909143)",Public_transport,platform,André Thoor
node,6133393112,3.0636359,50.6382367,"(50.6382367,3.0636359)",Shopping,jewelry,Anemone
node,9662680156,3.0728446,50.6207824,"(50.6207824,3.0728446)",Daily_Life,hairdresser,Angèle coiffure
node,8866332218,3.0851510,50.6419949,"(50.6419949,3.0851510)",Entertainment,restaurant,Angkor
node,8839018589,3.0564899,50.6452806,"(50.6452806,3.0564899)",Entertainment,bar,Angle 95
node,7416672417,3.0701378,50.6352885,"(50.6352885,3.0701378)",Entertainment,restaurant,Ankara
node,8999661623,3.0624130,50.6439628,"(50.6439628,3.0624130)",Healthcare,dentist,Anne Bourgeois
node,5581233572,3.0526551,50.6287736,"(50.6287736,3.0526551)",Entertainment,restaurant,Annie's Kitchen
node,8995826554,3.0438454,50.6289503,"(50.6289503,3.0438454)",Healthcare,dentist,Antoine Bonnel
node,5342366421,3.0623902,50.6413947,"(50.6413947,3.0623902)",Shopping,clothes,Antoine et Lili
node,6571108767,3.0606449,50.6386660,"(50.6386660,3.0606449)",Entertainment,bar,Antonietta
node,7448518934,3.0671971,50.6429772,"(50.6429772,3.0671971)",Entertainment,restaurant,Aoyama
node,2690729824,3.0812925,50.6291497,"(50.6291497,3.0812925)",Hotel,hotel,Appart City Lille Grand Palais
node,9721960215,3.0643466,50.6363843,"(50.6363843,3.0643466)",Shopping,perfumery,April
node,8948397209,3.0499619,50.6189200,"(50.6189200,3.0499619)",Daily_Life,pharmacy,Aprium Pharmacie
node,6119978812,3.0568841,50.6299959,"(50.6299959,3.0568841)",Shopping,travel_agency,Aquatour
node,6893589402,2.9867914,50.6456111,"(50.6456111,2.9867914)",Shopping,travel_agency,Aquatour
node,7507963852,3.0681149,50.6369123,"(50.6369123,3.0681149)",Shopping,travel_agency,Aquatour
node,2927999544,3.0611748,50.6202405,"(50.6202405,3.0611748)",Public_transport,platform,Arago
node,2927999545,3.0612967,50.6206640,"(50.6206640,3.0612967)",Public_transport,platform,Arago
node,10154338669,3.0576859,50.6444315,"(50.6444315,3.0576859)",Entertainment,restaurant,Arancinis Lovers
node,2616209561,3.0497517,50.6056960,"(50.6056960,3.0497517)",Public_transport,platform,Arbrisseau
node,2616209564,3.0481918,50.6059702,"(50.6059702,3.0481918)",Public_transport,platform,Arbrisseau
node,5538696783,3.0619356,50.6369018,"(50.6369018,3.0619356)",Shopping,shoes,Arche
node,5163090899,3.0559608,50.6304838,"(50.6304838,3.0559608)",Entertainment,bar,Arena Bar
node,7645925303,3.0560081,50.6254632,"(50.6254632,3.0560081)",Sport,sports_centre,Arkose Lille
node,6335434118,2.9760128,50.6515168,"(50.6515168,2.9760128)",Shopping,clothes,Armand Thiery
node,8022017157,3.0612685,50.6361220,"(50.6361220,3.0612685)",Shopping,cosmetics,Aroma-zone
way,45827936,3.0633269,50.6350218,"(50.6350218,3.0633269)",Entertainment,restaurant,Aromebase
node,5345783634,3.0488268,50.6313480,"(50.6313480,3.0488268)",Shopping,books,Art & Liturgie
way,84450443,3.0584567,50.6442230,"(50.6442230,3.0584567)",Shopping,musical_instrument,Art Piano
node,5383857972,3.0626385,50.6384715,"(50.6384715,3.0626385)",Shopping,jewelry,Arthus Bertrand
node,1788669979,3.0903675,50.6329536,"(50.6329536,3.0903675)",Daily_Life,bakery,Artisan Boulanger Madeleine
node,4302854784,3.0586678,50.6294811,"(50.6294811,3.0586678)",Daily_Life,hairdresser,Artist Hair
node,2717260104,3.0941724,50.6315585,"(50.6315585,3.0941724)",Daily_Life,hairdresser,Artistic Coiffure
node,2917888391,3.0616939,50.6260112,"(50.6260112,3.0616939)",Public_transport,platform,Artois
node,2917888392,3.0617001,50.6261331,"(50.6261331,3.0617001)",Public_transport,platform,Artois
node,6032496258,3.0648530,50.6388640,"(50.6388640,3.0648530)",Shopping,clothes,Ashton
node,583242447,3.0659892,50.6362914,"(50.6362914,3.0659892)",Entertainment,fast_food,Asie Snack
node,1505154069,3.0507834,50.6256835,"(50.6256835,3.0507834)",Entertainment,fast_food,Aspendos
way,42736739,3.0487636,50.6290615,"(50.6290615,3.0487636)",Sport,sports_centre,ASPTT Lille
way,85087432,3.0992223,50.6310502,"(50.6310502,3.0992223)",Religious,mosque,Association Culturelle Des Travailleurs Turcs
way,84402253,3.0489286,50.6200251,"(50.6200251,3.0489286)",Religious,mosque,Association Fidélité
node,9136359802,3.0624296,50.6413401,"(50.6413401,3.0624296)",Daily_Life,chocolate,Astral Chocolat
node,5343505325,3.0600438,50.6354141,"(50.6354141,3.0600438)",Shopping,books,AstroCity
way,39581519,3.0131346,50.6296196,"(50.6296196,3.0131346)",Shopping,retail,Asturienne
way,85093054,3.1010473,50.6227152,"(50.6227152,3.1010473)",Culture,arts_centre,Atelier 4
node,6512125018,3.0010841,50.6470059,"(50.6470059,3.0010841)",Daily_Life,chocolate,Atelier de la Gourmandise
node,9507450382,3.0571669,50.6303613,"(50.6303613,3.0571669)",Sport,fitness_centre,Atelier de Yoga
node,9985932829,3.0622564,50.6330327,"(50.6330327,3.0622564)",Shopping,interior_decoration,Atelier Kumo
node,8963725144,3.0654024,50.6391808,"(50.6391808,3.0654024)",Shopping,interior_decoration,Atelier Mama Oh!
node,5325752899,3.0498046,50.6275185,"(50.6275185,3.0498046)",Daily_Life,optician,Atol
node,7507963850,3.0684106,50.6368736,"(50.6368736,3.0684106)",Daily_Life,optician,Atol
node,9507450381,3.0570819,50.6303250,"(50.6303250,3.0570819)",Sport,sports,Attitude Diffusion
node,5942418313,3.0556362,50.6309394,"(50.6309394,3.0556362)",Entertainment,fast_food,Au 111 del Solfe
node,9405062817,3.0748978,50.6329150,"(50.6329150,3.0748978)",Entertainment,restaurant,Au 30 meal
way,108183039,3.0148738,50.6396964,"(50.6396964,3.0148738)",Entertainment,restaurant,Au 49
node,8449700167,3.1056902,50.6325762,"(50.6325762,3.1056902)",Entertainment,bar,Au Bienvenue
node,5343504210,3.0535367,50.6330617,"(50.6330617,3.0535367)",Entertainment,restaurant,Au Bon Poulet
node,5342326026,3.0658008,50.6361264,"(50.6361264,3.0658008)",Shopping,clothes,Au bonheur de Sophie
node,2995959296,3.0941397,50.6237613,"(50.6237613,3.0941397)",Daily_Life,bakery,Au Bonheur des gourmands
node,7467944481,3.0581209,50.6374248,"(50.6374248,3.0581209)",Entertainment,bar,Au Boudin Bar
node,4570277277,3.0573159,50.6275104,"(50.6275104,3.0573159)",Entertainment,bar,Au bout du bar
node,7680448286,3.0588892,50.6312902,"(50.6312902,3.0588892)",Entertainment,fast_food,Au Burger d'Or
way,40236856,3.0392307,50.6272602,"(50.6272602,3.0392307)",Entertainment,bar,Au Carrefour
node,5316414406,3.0462778,50.6302515,"(50.6302515,3.0462778)",Entertainment,fast_food,Au Ch'ti Panini
node,5324530165,3.0642681,50.6368667,"(50.6368667,3.0642681)",Daily_Life,chocolate,Au Chat Bleu
node,4432802851,3.0486459,50.6251385,"(50.6251385,3.0486459)",Entertainment,bar,Au Cheval Blanc
way,85096425,3.0967046,50.6290243,"(50.6290243,3.0967046)",Entertainment,cafe,Au clos des archers
node,2090996764,3.0613893,50.6223422,"(50.6223422,3.0613893)",Entertainment,cafe,Au Comte d'Artois
node,2694662866,3.0865176,50.6322444,"(50.6322444,3.0865176)",Entertainment,pub,Au Coq d'Or
node,4442146054,3.0699290,50.6355920,"(50.6355920,3.0699290)",Entertainment,bar,Au Courrier de Tournai
way,85099411,3.1048332,50.6283572,"(50.6283572,3.1048332)",Shopping,convenience,Au cours des halles
node,10079394217,3.0655480,50.6332080,"(50.6332080,3.0655480)",Daily_Life,hairdresser,Au delà du miroir
node,5324577311,3.0568227,50.6300275,"(50.6300275,3.0568227)",Entertainment,restaurant,Au dragon d'or
way,41109800,3.0408804,50.6264600,"(50.6264600,3.0408804)",Entertainment,cafe,Au Duc de Montebello
node,6130493702,3.0279067,50.6178804,"(50.6178804,3.0279067)",Daily_Life,butcher,Au Faubourg
node,7330223510,3.0553761,50.6026694,"(50.6026694,3.0553761)",Daily_Life,bakery,Au Fournil d'Arras
node,3223270192,3.0515417,50.6230734,"(50.6230734,3.0515417)",Daily_Life,bakery,Au fournil de Wazemmes
node,7448518936,3.0675914,50.6432528,"(50.6432528,3.0675914)",Entertainment,bar,Au Gand'Brinus
way,42509988,3.0576022,50.6388816,"(50.6388816,3.0576022)",Entertainment,restaurant,Au goût du jour
node,7429068425,3.0667742,50.6314500,"(50.6314500,3.0667742)",Sport,sports_centre,Au Grand Large
node,8776305072,3.0615076,50.6410574,"(50.6410574,3.0615076)",Shopping,wine,Au Gré du Vin et des Saveurs Gourmandes
node,978036765,3.0698910,50.6325077,"(50.6325077,3.0698910)",Daily_Life,bakery,Au Kennedy
node,4442146056,3.0705534,50.6354038,"(50.6354038,3.0705534)",Entertainment,bar,Au Lion Belge
node,7569069534,3.0479262,50.6145943,"(50.6145943,3.0479262)",Daily_Life,bakery,Au moka du sud
node,6042843003,3.0646196,50.6403584,"(50.6403584,3.0646196)",Daily_Life,florist,Au Nom de la Rose
node,6915134072,3.0070750,50.6322392,"(50.6322392,3.0070750)",Entertainment,fast_food,Au P'tit Délice
node,4671775430,3.0694686,50.6284483,"(50.6284483,3.0694686)",Daily_Life,bakery,Au P'tit Louis - St Sauveur
node,5320723322,3.0477361,50.6142683,"(50.6142683,3.0477361)",Entertainment,cafe,Au P'tit Marin
node,8951879475,3.0466426,50.6126074,"(50.6126074,3.0466426)",Entertainment,bar,Au P'tit Pompier
node,9057219576,3.0272297,50.6320409,"(50.6320409,3.0272297)",Daily_Life,bakery,Au Pain d'épi
node,7858105288,3.0458447,50.6110090,"(50.6110090,3.0458447)",Daily_Life,bakery,Au pain du sud
node,7686937821,3.0886648,50.6268462,"(50.6268462,3.0886648)",Daily_Life,bakery,Au Pain Gourmand
node,9946833085,3.0800194,50.6235860,"(50.6235860,3.0800194)",Daily_Life,bakery,Au Pain Levé
node,2300170109,3.0896610,50.6335474,"(50.6335474,3.0896610)",Daily_Life,bakery,Au Palais des Dames
way,85087448,3.0887249,50.6264233,"(50.6264233,3.0887249)",Shopping,convenience,Au Panier Garni
node,5325754303,3.0476558,50.6266525,"(50.6266525,3.0476558)",Daily_Life,bakery,Au Pavé des Flandres
way,84921294,3.0923621,50.6369124,"(50.6369124,3.0923621)",Entertainment,bar,Au petit coin
way,833216801,3.0845696,50.6375075,"(50.6375075,3.0845696)",Entertainment,fast_food,Au petit Festin
node,5325754308,3.0472268,50.6264802,"(50.6264802,3.0472268)",Daily_Life,seafood,Au Petit Mousse
node,6536701939,3.0494574,50.6265884,"(50.6265884,3.0494574)",Daily_Life,seafood,Au petit poissonnier
node,617240504,3.0649427,50.6393838,"(50.6393838,3.0649427)",Entertainment,cafe,Au Point Central
node,4183809473,3.0617283,50.6415920,"(50.6415920,3.0617283)",Daily_Life,hairdresser,Au quai des artistes
node,5133702662,3.0538045,50.6373079,"(50.6373079,3.0538045)",Entertainment,restaurant,Au Quai du Wault
node,2876224636,3.0594704,50.6359495,"(50.6359495,3.0594704)",Entertainment,bar,Au Refuge
node,6905063155,3.0491570,50.6266980,"(50.6266980,3.0491570)",Daily_Life,butcher,Au roi du boudin
way,41184612,3.0749815,50.6292440,"(50.6292440,3.0749815)",Entertainment,restaurant,Au Roi Soleil
node,5298878521,3.0663684,50.6423263,"(50.6423263,3.0663684)",Entertainment,restaurant,Au Soyeux
node,3390290599,3.0182519,50.6410436,"(50.6410436,3.0182519)",Entertainment,bar,Au Stop
node,617639563,3.0614070,50.6408939,"(50.6408939,3.0614070)",Entertainment,restaurant,Au Vieux de la Vieille
node,5350606161,3.0625096,50.6383869,"(50.6383869,3.0625096)",Shopping,clothes,Aubade
node,8232675793,3.0673807,50.6352474,"(50.6352474,3.0673807)",Daily_Life,supermarket,Auchan
node,9981230085,3.0224579,50.6343900,"(50.6343900,3.0224579)",Daily_Life,supermarket,Auchan
node,10177992797,3.0814779,50.6406904,"(50.6406904,3.0814779)",Daily_Life,supermarket,Auchan
way,108186200,2.9697400,50.6342210,"(50.6342210,2.9697400)",Daily_Life,supermarket,Auchan Drive
way,84449453,3.0587404,50.6470358,"(50.6470358,3.0587404)",Daily_Life,supermarket,Auchan Drive
node,7885073437,3.0566702,50.6303963,"(50.6303963,3.0566702)",Daily_Life,supermarket,Auchan Drive
node,5709628385,3.0525134,50.6326003,"(50.6326003,3.0525134)",Daily_Life,supermarket,Auchan Drive Piéton
node,4421806115,3.0479704,50.6334381,"(50.6334381,3.0479704)",Daily_Life,supermarket,Auchan Drive Piéton Vauban
node,6110928848,3.0384536,50.6242337,"(50.6242337,3.0384536)",Daily_Life,supermarket,Auchan Piéton Lille Isly
node,9405028118,3.0684031,50.6321790,"(50.6321790,3.0684031)",Daily_Life,supermarket,Auchan Piéton Lille Kennedy
node,6581709309,3.0285577,50.6179118,"(50.6179118,3.0285577)",Public_transport,platform,Augereau
node,6581709310,3.0283834,50.6177382,"(50.6177382,3.0283834)",Public_transport,platform,Augereau
node,5455331792,3.0529486,50.6286783,"(50.6286783,3.0529486)",Entertainment,fast_food,Authentic Burger
node,8973547971,3.0581733,50.6401381,"(50.6401381,3.0581733)",Entertainment,restaurant,Autour de vous
node,1389924582,3.0676431,50.6348457,"(50.6348457,3.0676431)",Shopping,books,Autour du Monde
node,8015860199,3.0613709,50.6418626,"(50.6418626,3.0613709)",Entertainment,restaurant,Aux Arts
node,8194364206,3.0623553,50.6318222,"(50.6318222,3.0623553)",Daily_Life,hairdresser,Aux barbus lillois
node,5325754268,3.0488644,50.6262455,"(50.6262455,3.0488644)",Entertainment,restaurant,Aux Bretons
node,5555156965,3.0491290,50.6267369,"(50.6267369,3.0491290)",Daily_Life,greengrocer,Aux Campagnes Lilloises
way,85083588,3.1065203,50.6282272,"(50.6282272,3.1065203)",Daily_Life,bakery,Aux délices
node,5225103900,3.1142119,50.6351378,"(50.6351378,3.1142119)",Daily_Life,bakery,Aux délices de la Guingette
node,4893943621,3.0618163,50.6395745,"(50.6395745,3.0618163)",Entertainment,restaurant,Aux Deux Cocottes
node,2995433301,3.0614902,50.6296978,"(50.6296978,3.0614902)",Entertainment,restaurant,Aux Éphérites
node,5267867990,3.0550048,50.6319178,"(50.6319178,3.0550048)",Entertainment,fast_food,Aux Filles du Cambodge
node,9472516392,3.0585568,50.6376047,"(50.6376047,3.0585568)",Entertainment,restaurant,Aux Indes
node,1495214830,3.0419094,50.6191100,"(50.6191100,3.0419094)",Daily_Life,greengrocer,Aux jardins du faubourg
node,1402607820,3.0621670,50.6413210,"(50.6413210,3.0621670)",Daily_Life,bakery,Aux Merveilleux de Fred
node,5163090888,3.0491330,50.6272376,"(50.6272376,3.0491330)",Daily_Life,pastry,Aux Merveilleux de Fred
node,5966547375,3.0703041,50.6366926,"(50.6366926,3.0703041)",Daily_Life,pastry,Aux Merveilleux de Fred
node,7123131536,3.0632838,50.6360213,"(50.6360213,3.0632838)",Entertainment,restaurant,Aux Moules de Lille
way,42774178,3.0586389,50.6312438,"(50.6312438,3.0586389)",Entertainment,fast_food,Aux Pains Dorés
node,9472599613,3.0652442,50.6402601,"(50.6402601,3.0652442)",Entertainment,cafe,Aux Tiroirs à Cookies
node,1911606631,3.0994363,50.6191685,"(50.6191685,3.0994363)",Public_transport,platform,Avenir
node,1911606633,3.0991368,50.6197021,"(50.6197021,3.0991368)",Public_transport,platform,Avenir
node,6804995865,3.0616355,50.6380099,"(50.6380099,3.0616355)",Shopping,cosmetics,Avril
node,3457891779,3.0032873,50.6473481,"(50.6473481,3.0032873)",Entertainment,fast_food,Aza Kebab
node,4432667906,3.0427022,50.6323407,"(50.6323407,3.0427022)",Entertainment,bar,B-Routh
node,5317159572,3.0518117,50.6282114,"(50.6282114,3.0518117)",Sport,sports,B-Shop
way,104641902,3.0820003,50.6277548,"(50.6277548,3.0820003)",Hotel,hotel,B&B Hôtel
node,3021793011,3.0636431,50.6327063,"(50.6327063,3.0636431)",Entertainment,bar,B148
node,7441780975,3.0640162,50.6392470,"(50.6392470,3.0640162)",Shopping,clothes,Ba&sh
node,10166151168,3.0641034,50.6406953,"(50.6406953,3.0641034)",Shopping,clothes,Ba&sh
node,5158700364,3.0682398,50.6248942,"(50.6248942,3.0682398)",Entertainment,restaurant,Baan Boon
node,10154377943,3.0522912,50.6232561,"(50.6232561,3.0522912)",Daily_Life,pastry,Bab Medina
node,6260343274,3.0594095,50.6303595,"(50.6303595,3.0594095)",Entertainment,fast_food,Baba Burger & Poké
node,2335382474,3.0641467,50.6264390,"(50.6264390,3.0641467)",Entertainment,restaurant,Baba Yaga
node,9377178017,3.0611535,50.6343841,"(50.6343841,3.0611535)",Entertainment,restaurant,Babe
node,6133393171,3.0633542,50.6376213,"(50.6376213,3.0633542)",Shopping,jewelry,Baccarat
node,6135647795,3.0654456,50.6415469,"(50.6415469,3.0654456)",Entertainment,restaurant,BackHouse
node,5273384154,3.0628396,50.6328823,"(50.6328823,3.0628396)",Entertainment,fast_food,Bagel Corner
node,4416740148,3.0202757,50.6342051,"(50.6342051,3.0202757)",Entertainment,restaurant,Bagelcorner
node,7507963854,3.0676898,50.6366979,"(50.6366979,3.0676898)",Entertainment,fast_food,Bagelstein
node,9046147388,3.0610837,50.6365405,"(50.6365405,3.0610837)",Entertainment,fast_food,Bagelstein Nationale
node,6512125032,3.0000788,50.6468756,"(50.6468756,3.0000788)",Daily_Life,bakery,Baguette de l'Avenue
way,40823838,3.0676911,50.6289328,"(50.6289328,3.0676911)",Historic,attraction,Bains Lillois
node,5383857951,3.0624229,50.6380862,"(50.6380862,3.0624229)",Daily_Life,bakery,Bake My Day
node,7441780970,3.0640256,50.6390828,"(50.6390828,3.0640256)",Shopping,clothes,Balibaris
node,2793929839,3.0859926,50.6478769,"(50.6478769,3.0859926)",Public_transport,platform,Ballon
node,2793929840,3.0856462,50.6479582,"(50.6479582,3.0856462)",Public_transport,platform,Ballon
node,7235398588,3.0660461,50.6363137,"(50.6363137,3.0660461)",Shopping,clothes,Bar à chaussettes
node,5202232445,3.0548995,50.6301260,"(50.6301260,3.0548995)",Entertainment,restaurant,Bar à Couscous
node,7456935968,3.0623360,50.6390163,"(50.6390163,3.0623360)",Convenience,beauty,Bar à Ongle OPI
node,5942418309,3.0538999,50.6290764,"(50.6290764,3.0538999)",Daily_Life,hairdresser,Bar à Tresses
way,77496095,3.0675028,50.6205338,"(50.6205338,3.0675028)",Entertainment,bar,Bar Au Moulin
node,6892270503,3.0484099,50.6269491,"(50.6269491,3.0484099)",Entertainment,bar,Bar de la Paix
node,674884877,3.0620971,50.6388083,"(50.6388083,3.0620971)",Entertainment,bar,Bar Parallèle
node,583242449,3.0668303,50.6364628,"(50.6364628,3.0668303)",Daily_Life,hairdresser,Barb'Hair
node,8677767831,3.0680518,50.6284940,"(50.6284940,3.0680518)",Daily_Life,butcher,Barbak Néo-Boucherie
node,8849319882,3.0654397,50.6334828,"(50.6334828,3.0654397)",Daily_Life,hairdresser,Barber Dream
node,9572810972,3.0633344,50.6348978,"(50.6348978,3.0633344)",Daily_Life,hairdresser,Barber Dream
node,9405034417,3.0690264,50.6304945,"(50.6304945,3.0690264)",Daily_Life,hairdresser,Barberdream
node,4421774638,3.0548384,50.6326206,"(50.6326206,3.0548384)",Entertainment,bar,Barberousse
way,84449556,3.0572444,50.6466128,"(50.6466128,3.0572444)",Entertainment,bar,Barnett’s Lille
node,9001441423,3.0772599,50.6367635,"(50.6367635,3.0772599)",Entertainment,restaurant,Barrière Lille
node,2917888393,3.0639447,50.6231259,"(50.6231259,3.0639447)",Public_transport,platform,Bas Jardin
node,2917888394,3.0645697,50.6231574,"(50.6231574,3.0645697)",Public_transport,platform,Bas Jardin
node,4423782180,3.0552345,50.6334665,"(50.6334665,3.0552345)",Entertainment,bar,Base Camp
node,5418801724,3.0526279,50.6285545,"(50.6285545,3.0526279)",Sport,fitness_centre,Basic-Fit
node,5709628389,3.0585779,50.6351666,"(50.6351666,3.0585779)",Sport,fitness_centre,Basic-Fit
node,6196355936,3.0458447,50.6214315,"(50.6214315,3.0458447)",Sport,fitness_centre,Basic-Fit
node,7416672419,3.0694029,50.6348445,"(50.6348445,3.0694029)",Sport,fitness_centre,Basic-Fit
node,8998545318,3.0830167,50.6347063,"(50.6347063,3.0830167)",Sport,fitness_centre,Basic-Fit
node,9946833082,3.0727644,50.6199053,"(50.6199053,3.0727644)",Sport,fitness_centre,Basic-Fit
node,9319545923,3.0595391,50.6358906,"(50.6358906,3.0595391)",Entertainment,restaurant,Basilic & Co
node,2063752423,3.0638796,50.6363992,"(50.6363992,3.0638796)",Historic,attraction,Bâtiment dit la Grande Garde
node,2612196929,3.0243605,50.6294724,"(50.6294724,3.0243605)",Public_transport,platform,Bayart
node,2612196931,3.0245088,50.6295170,"(50.6295170,3.0245088)",Public_transport,platform,Bayart
node,3077003772,3.0241695,50.6295030,"(50.6295030,3.0241695)",Public_transport,platform,Bayart
node,9921358736,3.0570032,50.6293871,"(50.6293871,3.0570032)",Entertainment,bar,Bazar Comedy Club
node,7620261165,3.0660964,50.6349412,"(50.6349412,3.0660964)",Entertainment,fast_food,BChef
node,499609842,3.0584899,50.6391129,"(50.6391129,3.0584899)",Shopping,books,BD + café
node,9536992999,3.0618013,50.6338390,"(50.6338390,3.0618013)",Shopping,books,BD Collection
node,9964058006,3.0611645,50.6304554,"(50.6304554,3.0611645)",Shopping,clothes,Be Bop Vintage
node,7446873363,3.0663613,50.6425498,"(50.6425498,3.0663613)",Entertainment,restaurant,Be Burger Lille
node,9249238131,3.0610274,50.6388464,"(50.6388464,3.0610274)",Daily_Life,hairdresser,Beau 52 Belle
node,3084335568,2.9881520,50.6456684,"(50.6456684,2.9881520)",Public_transport,platform,Beau Visage
node,3084335571,2.9885573,50.6458254,"(50.6458254,2.9885573)",Public_transport,platform,Beau Visage
node,8154163658,3.0657206,50.6405983,"(50.6405983,3.0657206)",Entertainment,restaurant,Bec à sucre
way,85098946,3.0984320,50.6245390,"(50.6245390,3.0984320)",Daily_Life,bakery,Becaert
node,9144685907,3.0616578,50.6370949,"(50.6370949,3.0616578)",Entertainment,restaurant,Beef
node,5163093748,3.0594852,50.6313034,"(50.6313034,3.0594852)",Entertainment,restaurant,Beef Art
node,6329760224,3.0749317,50.6381082,"(50.6381082,3.0749317)",Entertainment,restaurant,BeefHouse
node,4496430989,3.0616019,50.6401103,"(50.6401103,3.0616019)",Entertainment,bar,Beer Square
node,6866906211,3.0656850,50.6415798,"(50.6415798,3.0656850)",Entertainment,bar,Beerchope
node,4237396196,3.0606660,50.6432293,"(50.6432293,3.0606660)",Entertainment,bar,Beerstro
node,802008610,3.0645146,50.6376829,"(50.6376829,3.0645146)",Historic,attraction,Beffroi de la Bourse
way,40848253,3.0698142,50.6306236,"(50.6306236,3.0698142)",Administration,Mairie,Beffroi de Lille
node,9332852614,3.0626220,50.6345333,"(50.6345333,3.0626220)",Entertainment,restaurant,Bella Italia
node,7441428392,3.0640390,50.6379998,"(50.6379998,3.0640390)",Shopping,clothes,Bellerose
node,9097533623,3.0669965,50.6379202,"(50.6379202,3.0669965)",Shopping,clothes,Bellissima
node,3547063446,3.0749174,50.6293932,"(50.6293932,3.0749174)",Healthcare,doctors,Ben Salem Chaker
node,5724126430,3.0635038,50.6338532,"(50.6338532,3.0635038)",Shopping,clothes,Benjamin
node,6571108768,3.0608018,50.6386748,"(50.6386748,3.0608018)",Shopping,clothes,Bensimon
node,7820142490,3.0730201,50.6203789,"(50.6203789,3.0730201)",Entertainment,restaurant,Berceau d'Afrique
node,7442270846,3.0634100,50.6407581,"(50.6407581,3.0634100)",Shopping,clothes,Bérénice
way,359865793,3.0353996,50.6376777,"(50.6376777,3.0353996)",Outdoor,park,Berges des Bois-Blancs
node,7457900797,3.0607090,50.6386707,"(50.6386707,3.0607090)",Entertainment,bar,Bernadette
node,6325881982,3.0648040,50.6381951,"(50.6381951,3.0648040)",Entertainment,restaurant,Bernard et Léon
node,3133445737,3.0724206,50.6375303,"(50.6375303,3.0724206)",Shopping,clothes,Bershka
node,5163093750,3.0645665,50.6334436,"(50.6334436,3.0645665)",Shopping,music,Besides Records
node,2061506705,3.0519148,50.6263032,"(50.6263032,3.0519148)",Hotel,hotel,Best Hotel Lille Gambetta
node,2914965162,3.0165717,50.6424229,"(50.6424229,3.0165717)",Entertainment,restaurant,Best Mama
node,8901996755,3.0750414,50.6131415,"(50.6131415,3.0750414)",Entertainment,fast_food,Best Tacos
node,2061506718,3.0758093,50.6232817,"(50.6232817,3.0758093)",Hotel,hotel,Best Western Lille Grand Palais
node,2061506829,3.0683561,50.6373749,"(50.6373749,3.0683561)",Hotel,hotel,Best Western Up Hôtel
node,7605546685,3.0608767,50.6381351,"(50.6381351,3.0608767)",Shopping,shoes,Bexley
way,40827883,3.0654820,50.6280640,"(50.6280640,3.0654820)",Culture,library,Bibliothèque de l'I.E.P
node,8985776173,3.0645668,50.6408960,"(50.6408960,3.0645668)",Historic,attraction,Bibliothèque municipale
way,84935876,3.0917569,50.6500554,"(50.6500554,3.0917569)",Culture,library,Bibliothèque pour tous
way,206102198,3.0374470,50.6070512,"(50.6070512,3.0374470)",Culture,library,"Bibliothèque universitaire de médecine, pôle recherche"
node,1457327184,3.0454384,50.6322941,"(50.6322941,3.0454384)",Culture,library,Bibliothèque universitaire Vauban
node,5135489624,3.0615909,50.6411013,"(50.6411013,3.0615909)",Entertainment,bar,Bibo Vino
node,6415778697,3.0582433,50.6394016,"(50.6394016,3.0582433)",Entertainment,bar,BierBuik - Bloemeke
node,6536701942,3.0495466,50.6267255,"(50.6267255,3.0495466)",Daily_Life,alcohol,Bières des Halles
way,42478977,3.0586665,50.6387573,"(50.6387573,3.0586665)",Entertainment,fast_food,Big Fernand
node,4910931003,3.0627617,50.6329551,"(50.6329551,3.0627617)",Entertainment,fast_food,Big Fernand
node,6304297642,2.9863232,50.6457609,"(50.6457609,2.9863232)",Shopping,jewelry,Bijouterie Baudechon
way,42777492,3.0539942,50.6294927,"(50.6294927,3.0539942)",Shopping,jewelry,Bijouterie Lombart
node,6875475073,2.9886100,50.6440638,"(50.6440638,2.9886100)",Daily_Life,supermarket,Bilan Market
node,4857672769,3.0579535,50.6297063,"(50.6297063,3.0579535)",Entertainment,restaurant,Billionaire
node,4818250202,3.0692206,50.6284418,"(50.6284418,3.0692206)",Daily_Life,supermarket,Bio C' Bon
node,6005262763,3.0119790,50.6426962,"(50.6426962,3.0119790)",Daily_Life,supermarket,Bio C' Bon
node,5956476493,3.0682518,50.6199840,"(50.6199840,3.0682518)",Entertainment,fast_food,Bio'Appétit
node,9514738891,3.0625879,50.6325902,"(50.6325902,3.0625879)",Entertainment,fast_food,Bioburger
node,1505160553,3.0495521,50.6268656,"(50.6268656,3.0495521)",Daily_Life,supermarket,Biocoop
node,2389869342,3.0512717,50.6329751,"(50.6329751,3.0512717)",Daily_Life,supermarket,Biocoop
node,5265648436,3.0666686,50.6340205,"(50.6340205,3.0666686)",Daily_Life,supermarket,Biocoop
node,6957432264,3.0576813,50.6275240,"(50.6275240,3.0576813)",Daily_Life,supermarket,Biocoop
node,9548356267,3.0532305,50.6319227,"(50.6319227,3.0532305)",Healthcare,laboratory,Biopath
node,9223952161,3.0509878,50.6280460,"(50.6280460,3.0509878)",Healthcare,laboratory,Biopath Lille Wazemmes
node,4509013421,3.0588204,50.6287422,"(50.6287422,3.0588204)",Daily_Life,alcohol,Biovino
way,84404040,3.0543245,50.6231657,"(50.6231657,3.0543245)",Entertainment,bar,Bistro Romain
node,665892696,3.0403067,50.6101982,"(50.6101982,3.0403067)",Entertainment,cafe,Bistrot de la Cité
way,108107850,3.0132775,50.6352495,"(50.6352495,3.0132775)",Entertainment,bar,Bistrot du Marais
node,5058070123,3.0607217,50.6372379,"(50.6372379,3.0607217)",Entertainment,bar,Bistrot du Nouveau Siècle
node,4969313621,3.0648291,50.6332367,"(50.6332367,3.0648291)",Entertainment,restaurant,Bistrot Tao
node,5156716839,3.0637834,50.6345059,"(50.6345059,3.0637834)",Shopping,clothes,Bizzbee
node,5199896855,3.0647390,50.6396952,"(50.6396952,3.0647390)",Shopping,clothes,Bizzbee
node,6984726076,3.0088585,50.6281964,"(50.6281964,3.0088585)",Public_transport,platform,Blanchisseurs
node,6984726077,3.0110797,50.6292700,"(50.6292700,3.0110797)",Public_transport,platform,Blanchisseurs
node,9002099218,3.0567110,50.6387098,"(50.6387098,3.0567110)",Shopping,clothes,Blandin & Delloye
node,6159414365,3.0659298,50.6363302,"(50.6363302,3.0659298)",Entertainment,restaurant,Bleu Canard
node,7456935969,3.0607230,50.6388160,"(50.6388160,3.0607230)",Shopping,clothes,Bleu Natier
node,8992159053,3.0640593,50.6405791,"(50.6405791,3.0640593)",Shopping,clothes,Bleuforêt
way,273744628,3.0822030,50.6410897,"(50.6410897,3.0822030)",Daily_Life,hairdresser,Bliss Institut
node,7468000120,3.0595357,50.6379210,"(50.6379210,3.0595357)",Daily_Life,hairdresser,Bliss pour l'homme
node,9488045767,3.0579848,50.6373737,"(50.6373737,3.0579848)",Entertainment,cafe,Bloom Café
node,6905181437,3.0523210,50.6260296,"(50.6260296,3.0523210)",Daily_Life,butcher,BM
node,5383857974,3.0629287,50.6384687,"(50.6384687,3.0629287)",Shopping,cosmetics,Bobbi Brown
node,5418801119,3.0519814,50.6282708,"(50.6282708,3.0519814)",Convenience,beauty,Body Minute
node,9100538988,3.0623691,50.6331684,"(50.6331684,3.0623691)",Sport,fitness_centre,Bodyhit
node,5700475762,3.0251493,50.6367019,"(50.6367019,3.0251493)",Sport,fitness_centre,Bodyhit Lille Canteleu
node,8992159051,3.0637899,50.6394171,"(50.6394171,3.0637899)",Shopping,clothes,BOGGI Milano
node,4291542793,3.0530013,50.6287038,"(50.6287038,3.0530013)",Shopping,music,Bohème Records
node,2612196933,3.0317402,50.6337859,"(50.6337859,3.0317402)",Public_transport,platform,Bois Blancs
node,3077003773,3.0302681,50.6345183,"(50.6345183,3.0302681)",Public_transport,platform,Bois Blancs
node,3077003774,3.0302839,50.6348130,"(50.6348130,3.0302839)",Public_transport,platform,Bois Blancs
node,2061592504,3.0304363,50.6345058,"(50.6345058,3.0304363)",Public_transport,station,Bois Blancs
node,6389628510,3.0191598,50.6330077,"(50.6330077,3.0191598)",Entertainment,restaurant,Bombora
node,1491223501,3.0522950,50.6284160,"(50.6284160,3.0522950)",Shopping,clothes,Bon Chic Bonne Fripe
node,8330453681,3.0521770,50.6285722,"(50.6285722,3.0521770)",Shopping,clothes,Bon Chic Bonne Fripe 2
node,9759884254,3.0632011,50.6383594,"(50.6383594,3.0632011)",Shopping,clothes,Bonne Gueule
node,5651627755,3.0219225,50.6384908,"(50.6384908,3.0219225)",Daily_Life,hairdresser,Bons Plans Coiffure
node,9006908659,3.0584457,50.6383115,"(50.6383115,3.0584457)",Daily_Life,alcohol,Bonsigne
node,4421814912,3.0550824,50.6324344,"(50.6324344,3.0550824)",Entertainment,fast_food,Bosphore Kebab
node,5455331781,3.0636366,50.6351521,"(50.6351521,3.0636366)",Shopping,shoes,Bottina
node,6042843010,3.0643464,50.6396891,"(50.6396891,3.0643464)",Shopping,interior_decoration,Bouchara
node,9023199480,3.0666291,50.6218449,"(50.6218449,3.0666291)",Daily_Life,butcher,Boucherie Arras
node,9543040860,3.0302574,50.6343594,"(50.6343594,3.0302574)",Daily_Life,butcher,Boucherie Bois Blanc
node,7230131505,3.0862121,50.6368748,"(50.6368748,3.0862121)",Daily_Life,butcher,Boucherie Caulier
node,2138880094,3.1109598,50.6321229,"(50.6321229,3.1109598)",Daily_Life,butcher,Boucherie Cazier
node,1495214826,3.0417485,50.6191168,"(50.6191168,3.0417485)",Daily_Life,butcher,Boucherie Chamal
node,6007078132,3.0199251,50.6393642,"(50.6393642,3.0199251)",Daily_Life,butcher,Boucherie Charcuterie Hourson
node,7448518933,3.0670724,50.6428803,"(50.6428803,3.0670724)",Daily_Life,butcher,Boucherie chevaline Duprés
node,8513659299,3.0132365,50.6395402,"(50.6395402,3.0132365)",Daily_Life,butcher,Boucherie de Lomme
node,6532268963,3.0507834,50.6190214,"(50.6190214,3.0507834)",Daily_Life,butcher,Boucherie Des Postes
node,4405902991,2.9863674,50.6455808,"(50.6455808,2.9863674)",Daily_Life,butcher,Boucherie du Centre
node,7330237341,3.0573243,50.6049655,"(50.6049655,3.0573243)",Daily_Life,butcher,Boucherie du Nord
node,7858105286,3.0456446,50.6112430,"(50.6112430,3.0456446)",Daily_Life,butcher,Boucherie du sud
node,5325754258,3.0491158,50.6258681,"(50.6258681,3.0491158)",Daily_Life,butcher,Boucherie Ennasr
node,1505182426,3.0492937,50.6268373,"(50.6268373,3.0492937)",Daily_Life,butcher,Boucherie Jean-Claude
node,8292679905,3.0875090,50.6321475,"(50.6321475,3.0875090)",Daily_Life,butcher,Boucherie Lil'Fives
node,5405879890,3.0954791,50.6312573,"(50.6312573,3.0954791)",Daily_Life,butcher,Boucherie Lwiza
node,5405879882,3.0948424,50.6315161,"(50.6315161,3.0948424)",Daily_Life,butcher,Boucherie Marc François
node,5325754259,3.0491714,50.6257921,"(50.6257921,3.0491714)",Daily_Life,butcher,Boucherie Market Place
node,3547135593,3.0653739,50.6295169,"(50.6295169,3.0653739)",Healthcare,doctors,Bouchez Sylviane
node,9662478643,3.0582405,50.6440395,"(50.6440395,3.0582405)",Convenience,beauty,Boudoir du regard
node,4424239711,3.0630167,50.6376964,"(50.6376964,3.0630167)",Entertainment,restaurant,Bouillon Alcide
node,5854509343,3.1021328,50.6174423,"(50.6174423,3.1021328)",Daily_Life,bakery,Boulangerie Ange
node,4504620806,3.0680305,50.6356664,"(50.6356664,3.0680305)",Daily_Life,bakery,Boulangerie du Renard
node,6057581859,3.0146476,50.6395949,"(50.6395949,3.0146476)",Daily_Life,bakery,Boulangerie Fontenelle
node,9056455398,3.0372674,50.6234295,"(50.6234295,3.0372674)",Daily_Life,bakery,Boulangerie Hubinon & Lamonnt
node,6335434119,2.9756964,50.6509499,"(50.6509499,2.9756964)",Daily_Life,bakery,Boulangerie Louise
node,5300573925,3.0668574,50.6341115,"(50.6341115,3.0668574)",Daily_Life,bakery,Boulangerie Mathieu
node,2389863568,3.0460724,50.6294027,"(50.6294027,3.0460724)",Daily_Life,bakery,Boulangerie Mosin
node,5267690519,3.0484271,50.6308728,"(50.6308728,3.0484271)",Daily_Life,bakery,Boulangerie Papillon
node,7442270835,3.0644031,50.6401128,"(50.6401128,3.0644031)",Daily_Life,pastry,Boulangerie Pâtisserie au Lion d'Or
node,3328754003,3.0397451,50.6260637,"(50.6260637,3.0397451)",Daily_Life,bakery,Boulangerie Patisserie Au P'tit Louis
node,4405960276,3.0189702,50.6400642,"(50.6400642,3.0189702)",Daily_Life,bakery,Boulangerie Patisserie Blezel
node,5202232447,3.0591173,50.6313603,"(50.6313603,3.0591173)",Daily_Life,bakery,Boulangerie Pâtisserie Kaufmann
node,8956049124,3.0755304,50.6195058,"(50.6195058,3.0755304)",Daily_Life,bakery,Boulangerie Saint-Vincent
node,581061507,3.1096137,50.6270141,"(50.6270141,3.1096137)",Daily_Life,bakery,Boulangerie Sohet
node,4708913242,3.1112850,50.6276913,"(50.6276913,3.1112850)",Daily_Life,bakery,Boulangerie Toulemonde
node,5331690506,3.1136774,50.6254762,"(50.6254762,3.1136774)",Daily_Life,bakery,Boulangerie-Patisserie Sohet
node,1368337672,3.0887149,50.6253275,"(50.6253275,3.0887149)",Public_transport,platform,Boulevard de l'Usine
node,1368337674,3.0886210,50.6258591,"(50.6258591,3.0886210)",Public_transport,platform,Boulevard de l'Usine
node,6491566430,3.0406361,50.6196024,"(50.6196024,3.0406361)",Public_transport,platform,Boulevard de Metz
node,6491566431,3.0402069,50.6194701,"(50.6194701,3.0402069)",Public_transport,platform,Boulevard de Metz
node,4076611127,3.0086174,50.6314130,"(50.6314130,3.0086174)",Sport,sports_centre,Boulodrome
node,3547125672,3.0653557,50.6299786,"(50.6299786,3.0653557)",Healthcare,doctors,Bouras Fatima
node,2061592855,2.9851942,50.6455740,"(50.6455740,2.9851942)",Public_transport,station,Bourg
node,2616209566,3.0557312,50.6029128,"(50.6029128,3.0557312)",Public_transport,platform,Bourget
node,2349797598,3.0918880,50.6262553,"(50.6262553,3.0918880)",Slow_transport,bicycle_parking,Bourse du Travail
node,6133393167,3.0634041,50.6376623,"(50.6376623,3.0634041)",Shopping,watches,Boutique Cresus
node,6133393147,3.0635923,50.6378778,"(50.6378778,3.0635923)",Shopping,jewelry,Boutique Dinh Van
node,6095245467,3.0584214,50.6311028,"(50.6311028,3.0584214)",Shopping,jewelry,Boutique Esotérique & Mineraux
way,45561651,3.0674946,50.6366880,"(50.6366880,3.0674946)",Sport,sports,Boutique LOSC Lille Centre-Ville
node,7442763320,3.0657995,50.6404400,"(50.6404400,3.0657995)",Entertainment,bar,Box2Box
node,3547089646,3.0679001,50.6328748,"(50.6328748,3.0679001)",Healthcare,doctors,Braconnier Guillaume
node,8007833561,3.0451624,50.6251159,"(50.6251159,3.0451624)",Entertainment,restaurant,Brasserie Chez Omer
node,6133393110,3.0631836,50.6362582,"(50.6362582,3.0631836)",Entertainment,cafe,Brasserie de Foy
node,5325868608,3.0700019,50.6191601,"(50.6191601,3.0700019)",Entertainment,restaurant,Brasserie La Basoche
node,9964058003,3.0621879,50.6276296,"(50.6276296,3.0621879)",Entertainment,restaurant,Brasserie Parent
node,9981212352,3.0209903,50.6340988,"(50.6340988,3.0209903)",Entertainment,cafe,Break & Dej'
node,9063559044,2.9767811,50.6511318,"(50.6511318,2.9767811)",Shopping,clothes,Breal
node,5348005204,3.0636869,50.6343831,"(50.6343831,3.0636869)",Shopping,clothes,Brice
node,3021793000,3.0614214,50.6335821,"(50.6335821,3.0614214)",Entertainment,bar,Brigand
node,7416446581,3.0680883,50.6343629,"(50.6343629,3.0680883)",Entertainment,fast_food,Brins d'épices
node,5163601538,3.0726787,50.6377563,"(50.6377563,3.0726787)",Daily_Life,bakery,Brioche Dorée
node,5348005209,3.0644412,50.6349394,"(50.6349394,3.0644412)",Daily_Life,bakery,Brioche Dorée
node,9871074910,3.0660883,50.6239283,"(50.6239283,3.0660883)",Daily_Life,pastry,Briocherie Sylvana
node,2096356682,3.0698077,50.6270933,"(50.6270933,3.0698077)",Entertainment,restaurant,Britney
node,6960050361,3.0991804,50.6298351,"(50.6298351,3.0991804)",Shopping,antiques,Brocantine
way,45562787,3.0668081,50.6360926,"(50.6360926,3.0668081)",Hotel,hotel,Brueghel
node,6571108765,3.0594171,50.6387818,"(50.6387818,3.0594171)",Entertainment,restaurant,Brutus
node,5348005722,3.0664072,50.6362897,"(50.6362897,3.0664072)",Entertainment,cafe,Bubble Bar
node,9985932824,3.0618493,50.6326328,"(50.6326328,3.0618493)",Entertainment,cafe,Bubble Up
node,9007023143,3.0652747,50.6354879,"(50.6354879,3.0652747)",Entertainment,cafe,Bubu Bubble Tea
way,108183301,2.9850231,50.6510608,"(50.6510608,2.9850231)",Entertainment,restaurant,Buffalo Grill
node,9152601455,3.0722333,50.6185586,"(50.6185586,3.0722333)",Shopping,shoes,Buhot
way,750941730,3.0883087,50.6563616,"(50.6563616,3.0883087)",Public_transport,platform,Buisson
way,108110685,3.0134040,50.6399035,"(50.6399035,3.0134040)",Public_service,post_office,Bureau de Poste de Lomme
node,10028391270,3.0676780,50.6198149,"(50.6198149,3.0676780)",Entertainment,fast_food,Burgan Tacos
node,7822987109,3.0709478,50.6186167,"(50.6186167,3.0709478)",Entertainment,fast_food,Burger Hunter
node,3319409334,3.0741849,50.6383443,"(50.6383443,3.0741849)",Entertainment,fast_food,Burger King
node,9144091158,3.0470803,50.6132724,"(50.6132724,3.0470803)",Entertainment,fast_food,Burger Street
node,5803644988,3.0473055,50.6302954,"(50.6302954,3.0473055)",Entertainment,fast_food,BurgerOnomy
node,3547095710,3.0678891,50.6328816,"(50.6328816,3.0678891)",Healthcare,doctors,BURO Robert
node,9981230752,3.0268376,50.6359325,"(50.6359325,3.0268376)",Daily_Life,hairdresser,By Laet&Prisc
node,5102943821,3.0593965,50.6332966,"(50.6332966,3.0593965)",Entertainment,restaurant,Byblos
node,470544816,3.0253976,50.6365552,"(50.6365552,3.0253976)",Entertainment,fast_food,Byzance
node,6531742962,3.0664798,50.6351659,"(50.6351659,3.0664798)",Shopping,clothes,C&A
node,2335039765,3.0631988,50.6322917,"(50.6322917,3.0631988)",Culture,theatre,Cabaret La Bonbonnière
node,2321926776,3.0896386,50.6246221,"(50.6246221,3.0896386)",Healthcare,doctors,Cabinet Courouble-Pirot
node,5788114755,3.0035981,50.6473020,"(50.6473020,3.0035981)",Healthcare,dentist,Cabinet dentaire
node,9101406399,3.0130864,50.6391883,"(50.6391883,3.0130864)",Healthcare,dentist,Cabinet Dentaire
way,51498989,3.0604620,50.6434110,"(50.6434110,3.0604620)",Healthcare,doctors,Cabinet du Docteur Dauzat
way,85083945,3.0996152,50.6247639,"(50.6247639,3.0996152)",Healthcare,doctors,Cabinet Médical Chanzy
node,6749150786,3.0420849,50.6250464,"(50.6250464,3.0420849)",Healthcare,doctors,Cabinet Médical Montebello
node,5435192000,3.0654001,50.6293068,"(50.6293068,3.0654001)",Healthcare,doctors,Cabinet MG liberté
way,85090514,3.0974730,50.6219546,"(50.6219546,3.0974730)",Daily_Life,supermarket,Cabri
node,9159416248,3.0693516,50.6335077,"(50.6335077,3.0693516)",Entertainment,restaurant,Café - Brasserie Le Delory
node,5325754225,3.0499714,50.6266866,"(50.6266866,3.0499714)",Entertainment,bar,Café Aux Halles
node,4509014825,3.0644239,50.6242342,"(50.6242342,3.0644239)",Entertainment,cafe,Café Bellot
node,1697685540,3.0556624,50.6338541,"(50.6338541,3.0556624)",Entertainment,cafe,Cafe Bonneville
node,6133393141,3.0630609,50.6384236,"(50.6384236,3.0630609)",Shopping,clothes,Café Coton
node,9726321838,3.0598356,50.6229413,"(50.6229413,3.0598356)",Entertainment,cafe,Café Crème
node,2776083328,3.0989042,50.6296356,"(50.6296356,3.0989042)",Entertainment,cafe,Café de l'Octroi
node,4526720694,3.1097758,50.6269523,"(50.6269523,3.1097758)",Entertainment,cafe,Café de la place
node,4729046616,3.1068503,50.6264714,"(50.6264714,3.1068503)",Entertainment,cafe,Café de la Poste
node,2722872995,3.0966502,50.6342570,"(50.6342570,3.0966502)",Entertainment,cafe,Café de la Presse
node,7418955854,3.0653567,50.6364724,"(50.6364724,3.0653567)",Entertainment,cafe,Café de Paris
node,9700012117,3.0607535,50.6371573,"(50.6371573,3.0607535)",Entertainment,cafe,Café des artistes
node,5325752880,3.0516070,50.6274588,"(50.6274588,3.0516070)",Entertainment,cafe,Café des Iles
node,5343504208,3.0514473,50.6321749,"(50.6321749,3.0514473)",Entertainment,restaurant,Café des Nates
way,42465785,3.0568969,50.6372896,"(50.6372896,3.0568969)",Entertainment,bar,Café du Bois
node,6436088613,3.0605642,50.6179845,"(50.6179845,3.0605642)",Entertainment,cafe,Café du Métro
node,9985932831,3.0704882,50.6352299,"(50.6352299,3.0704882)",Entertainment,cafe,Café du nord
node,1780241746,3.0558690,50.6398457,"(50.6398457,3.0558690)",Entertainment,cafe,Café du Vieux-Lille
node,3121907989,3.0548204,50.6239996,"(50.6239996,3.0548204)",Entertainment,bar,Café Jean
way,85092837,3.0896168,50.6331244,"(50.6331244,3.0896168)",Entertainment,bar,Café le Bras d'Hambourg
node,3398278492,3.0564876,50.6258560,"(50.6258560,3.0564876)",Entertainment,cafe,Café Les Amis
node,5468770162,3.0488814,50.6251927,"(50.6251927,3.0488814)",Entertainment,cafe,Café Les Sarrazins
node,7893472517,3.0647075,50.6378923,"(50.6378923,3.0647075)",Entertainment,restaurant,Café Lovster
node,5509181272,3.0632792,50.6364208,"(50.6364208,3.0632792)",Entertainment,cafe,Café Méo 7
way,85084475,3.1005370,50.6293488,"(50.6293488,3.1005370)",Entertainment,cafe,Café OKLM
node,6122249967,3.0630819,50.6362119,"(50.6362119,3.0630819)",Entertainment,restaurant,Café Peacock
way,84930164,3.0849281,50.6370654,"(50.6370654,3.0849281)",Entertainment,bar,Café Rabelais
node,5383854286,3.0639162,50.6372964,"(50.6372964,3.0639162)",Entertainment,bar,Cafe Society
node,8015857590,3.0626200,50.6442038,"(50.6442038,3.0626200)",Entertainment,cafe,Café Tabac
way,84448183,3.0597989,50.6453413,"(50.6453413,3.0597989)",Entertainment,bar,Café Tabac des Abattoirs
node,3457891780,3.0034079,50.6473068,"(50.6473068,3.0034079)",Daily_Life,tobacco,Café Tabac Loto La Mitterie
node,981089978,3.0499689,50.6221846,"(50.6221846,3.0499689)",Entertainment,cafe,Café-Parlons d'avenir
node,5325836975,3.0620474,50.6462835,"(50.6462835,3.0620474)",Entertainment,cafe,Cafét IAE
node,6296077350,3.1050897,50.6162442,"(50.6162442,3.1050897)",Entertainment,fast_food,Cafétéria Cdg59
node,5336523321,3.0485558,50.6150230,"(50.6150230,3.0485558)",Shopping,clothes,Caftan Lille
way,84938728,3.0810362,50.6402533,"(50.6402533,3.0810362)",Entertainment,restaurant,Caliente
node,9144025488,3.0458622,50.6115810,"(50.6115810,3.0458622)",Convenience,beauty,California Love Spa
node,3891384985,3.0692941,50.6373765,"(50.6373765,3.0692941)",Hotel,hotel,Calm Apart'Hotel
node,2061506703,3.0698343,50.6355068,"(50.6355068,3.0698343)",Hotel,hotel,Calm Hôtel
node,8019505332,3.0634350,50.6340947,"(50.6340947,3.0634350)",Shopping,clothes,Calzedonia
node,6159414364,3.0650246,50.6367138,"(50.6367138,3.0650246)",Daily_Life,hairdresser,Camille Albane
way,52060449,2.9837355,50.6533610,"(50.6533610,2.9837355)",Entertainment,restaurant,Campanile
node,3959503160,2.9774957,50.6545205,"(50.6545205,2.9774957)",Education,University,Campus Véolia Environnement
node,2717259650,3.0932949,50.6321465,"(50.6321465,3.0932949)",Daily_Life,hairdresser,Can's coiffure
node,5267690936,3.0626174,50.6331670,"(50.6331670,3.0626174)",Entertainment,fast_food,Canard Street
node,6536701945,3.0489921,50.6267064,"(50.6267064,3.0489921)",Entertainment,fast_food,Canard Street Wazemmes
node,5737552190,3.0327891,50.6370972,"(50.6370972,3.0327891)",Sport,sports_centre,Canoë Club Lillois
node,2984742452,3.0247813,50.6370156,"(50.6370156,3.0247813)",Public_transport,platform,Canteleu
node,2061592702,3.0246674,50.6371343,"(50.6371343,3.0246674)",Public_transport,station,Canteleu
node,8974524998,3.0641953,50.6368313,"(50.6368313,3.0641953)",Shopping,travel_agency,Cap 5
node,3113151379,2.9745291,50.6450620,"(50.6450620,2.9745291)",Public_transport,platform,Capinghem – Calvaire
node,9845231539,3.0708080,50.6389808,"(50.6389808,3.0708080)",Entertainment,bar,Carbone
node,5383857973,3.0628488,50.6385025,"(50.6385025,3.0628488)",Shopping,clothes,Carhartt WIP Store
node,5455331759,3.0641603,50.6349645,"(50.6349645,3.0641603)",Shopping,clothes,Caroll
node,5509181270,3.0629016,50.6374321,"(50.6374321,3.0629016)",Shopping,clothes,Caroll
node,2209116649,3.0533192,50.6323125,"(50.6323125,3.0533192)",Entertainment,pub,Carré des Halles
node,1443462548,3.0758330,50.6371494,"(50.6371494,3.0758330)",Daily_Life,supermarket,Carrefour
node,9063559045,2.9773963,50.6518697,"(50.6518697,2.9773963)",Daily_Life,supermarket,Carrefour
node,1753807367,3.0578278,50.6285544,"(50.6285544,3.0578278)",Daily_Life,supermarket,Carrefour City
node,1946057442,3.0541438,50.6236203,"(50.6236203,3.0541438)",Daily_Life,supermarket,Carrefour City
node,2096251581,3.0675747,50.6240316,"(50.6240316,3.0675747)",Daily_Life,supermarket,Carrefour City
node,2835263014,3.0673666,50.6367346,"(50.6367346,3.0673666)",Daily_Life,supermarket,Carrefour city
node,4405089247,3.0425617,50.6342345,"(50.6342345,3.0425617)",Daily_Life,supermarket,Carrefour City
node,5455331784,3.0709563,50.6355808,"(50.6355808,3.0709563)",Daily_Life,supermarket,Carrefour City
node,5455331785,3.0629070,50.6321111,"(50.6321111,3.0629070)",Daily_Life,supermarket,Carrefour City
node,6276579992,3.0136507,50.6393927,"(50.6393927,3.0136507)",Daily_Life,supermarket,Carrefour City
node,6276579998,3.0669274,50.6377389,"(50.6377389,3.0669274)",Daily_Life,supermarket,Carrefour City
node,7973816966,3.0807979,50.6234741,"(50.6234741,3.0807979)",Daily_Life,supermarket,Carrefour City
node,8971710127,3.0393986,50.6255162,"(50.6255162,3.0393986)",Daily_Life,supermarket,Carrefour City
node,9094411402,3.0630098,50.6408982,"(50.6408982,3.0630098)",Daily_Life,supermarket,Carrefour City
node,9136359796,3.0607087,50.6381916,"(50.6381916,3.0607087)",Daily_Life,supermarket,Carrefour City
node,8608343229,3.0537845,50.6194140,"(50.6194140,3.0537845)",Daily_Life,supermarket,Carrefour City Iter Vitae
node,8473463178,3.0239628,50.6302096,"(50.6302096,3.0239628)",Daily_Life,supermarket,Carrefour City Lille Pont à Fourchon
node,1811698458,3.1125944,50.6252376,"(50.6252376,3.1125944)",Daily_Life,supermarket,Carrefour Contact
way,84930523,3.0888811,50.6564055,"(50.6564055,3.0888811)",Shopping,convenience,Carrefour Express
way,39946560,3.0329812,50.6276247,"(50.6276247,3.0329812)",Daily_Life,supermarket,Carrefour Market
node,5325752882,3.0519609,50.6272664,"(50.6272664,3.0519609)",Daily_Life,supermarket,Carrefour Market
node,8987963806,3.0102219,50.6428434,"(50.6428434,3.0102219)",Daily_Life,deli,Casa Tatti
node,6357682091,3.0657481,50.6454398,"(50.6454398,3.0657481)",Public_transport,platform,Caserne Kléber
node,1443457424,3.0772184,50.6365120,"(50.6365120,3.0772184)",Culture,theatre,Casino Théâtre Lille Barrière
way,150546984,3.0626593,50.6401826,"(50.6401826,3.0626593)",Religious,cathedral,Cathédrale Notre-Dame de la Treille
node,7442270826,3.0640799,50.6394179,"(50.6394179,3.0640799)",Shopping,clothes,Catimini
node,8674413900,3.0873889,50.6365224,"(50.6365224,3.0873889)",Public_transport,platform,Caulier
node,8674413901,3.0875967,50.6365182,"(50.6365182,3.0875967)",Public_transport,platform,Caulier
node,405255871,3.0868209,50.6367139,"(50.6367139,3.0868209)",Public_transport,station,Caulier
node,1149457005,3.0253168,50.6365993,"(50.6365993,3.0253168)",Daily_Life,alcohol,Cave de récoltants
node,7411425911,3.0671635,50.6349883,"(50.6349883,3.0671635)",Shopping,wine,Cave du Parvis Saint-Maurice
node,1827950362,3.0447839,50.6094481,"(50.6094481,3.0447839)",Public_transport,platform,Cavell
node,1827950365,3.0446435,50.6094959,"(50.6094959,3.0446435)",Public_transport,platform,Cavell
node,5853256612,3.0584025,50.6284137,"(50.6284137,3.0584025)",Daily_Life,alcohol,Caviste Curieux
node,2838113040,2.9952869,50.6419017,"(50.6419017,2.9952869)",Entertainment,restaurant,Celebrazioni
node,8464276962,3.0589937,50.6389246,"(50.6389246,3.0589937)",Daily_Life,alcohol,Célestin
node,5316414392,3.0459596,50.6298445,"(50.6298445,3.0459596)",Entertainment,fast_food,Celine Kebab
node,5163601541,3.0744347,50.6376822,"(50.6376822,3.0744347)",Shopping,clothes,Celio
node,8993536175,3.0713112,50.6282954,"(50.6282954,3.0713112)",Education,University,Centre CNAM de Lille associé au Conservatoire national des arts et métiers Hauts de France
way,52032534,2.9775619,50.6514798,"(50.6514798,2.9775619)",Shopping,mall,Centre Commercial Carrefour
node,5525538038,3.0512744,50.6256295,"(50.6256295,3.0512744)",Culture,museum,Centre d'Arts Plastiques et Visuels - Wazemmes
way,629223237,3.0888586,50.6354977,"(50.6354977,3.0888586)",Public_service,Pompier,Centre d'incendie et de secours Lille Bouvines
way,816315934,3.0550668,50.6256305,"(50.6256305,3.0550668)",Public_service,Pompier,Centre d'incendie et de secours Lille Littré
way,41447134,3.0660682,50.6267665,"(50.6267665,3.0660682)",Public_service,Pompier,Centre d'incendie et de secours Lille Malus
way,629222697,3.0002195,50.6523477,"(50.6523477,3.0002195)",Public_service,Pompier,Centre d'incendie et de secours Lomme
way,273744645,3.0844400,50.6450779,"(50.6450779,3.0844400)",Healthcare,doctors,Centre d'Urologie
way,108765946,3.0316691,50.6092639,"(50.6092639,3.0316691)",Healthcare,hospital,Centre de Biologie-Pathologie
node,5607352583,3.0619830,50.6463685,"(50.6463685,3.0619830)",Culture,library,Centre de documentation de l’IAE
node,8964225889,3.0289269,50.6126437,"(50.6126437,3.0289269)",Education,University,Centre de formation de préparateurs en pharmacie hospitalière - Institut Gernez Rieux
node,8955017062,3.0547091,50.6231154,"(50.6231154,3.0547091)",Healthcare,hospital,"Centre de jour ""Les 4 Chemins"""
way,40686020,3.0452429,50.6192753,"(50.6192753,3.0452429)",Healthcare,hospital,Centre de Soins et d'Accompagnement et de Prévention en Addictologie
node,7538439205,3.0586939,50.6355218,"(50.6355218,3.0586939)",Healthcare,dentist,Centre dentaire Dentego Lille
node,9371157338,3.0496435,50.6272397,"(50.6272397,3.0496435)",Healthcare,dentist,Centre dentaire Lille - Wazemmes
node,9047998204,3.0639201,50.6342273,"(50.6342273,3.0639201)",Healthcare,dentist,Centre dentaire Lille Bethune
way,85084481,3.0844071,50.6327241,"(50.6327241,3.0844071)",Administration,government,Centre des Finances Publiques - Lille Est
node,6512125031,3.0006928,50.6469589,"(50.6469589,3.0006928)",Healthcare,doctors,Centre Imagerie Médicale Lomme
node,2691237997,3.0677910,50.6336567,"(50.6336567,3.0677910)",Convenience,beauty,Centre Laser Médical - Clinique Gantois
way,648358088,3.0304782,50.6339116,"(50.6339116,3.0304782)",Healthcare,hospital,Centre médical la Roseraie
node,8992272515,3.0648839,50.6439370,"(50.6439370,3.0648839)",Convenience,beauty,Centre Murano
way,59696353,3.0319767,50.6124828,"(50.6124828,3.0319767)",Healthcare,hospital,Centre Oscar Lambret
node,9155527842,3.0759682,50.6196440,"(50.6196440,3.0759682)",Healthcare,hospital,Centre psychiatrique d'accueil et d'admission
node,9556433611,3.0893603,50.6332128,"(50.6332128,3.0893603)",Culture,library,Centre Régional de Documentation et d’Information pour le Développement et la Solidarité Internationale
node,7073122483,3.0859943,50.6323944,"(50.6323944,3.0859943)",Culture,library,Centre Régional de Documentation Pédagogique
node,2389887183,3.0474331,50.6352746,"(50.6352746,3.0474331)",Education,University,Centre régional de formation des professionnels de l'enfance
way,937811148,2.9824941,50.6548765,"(50.6548765,2.9824941)",Culture,arts_centre,Centre Régional des Arts du Cirque
node,6269679410,3.0371393,50.6073313,"(50.6073313,3.0371393)",Healthcare,hospital,centre ressources autismes Nord-Pas de Calais
way,84927027,3.0863050,50.6412793,"(50.6412793,3.0863050)",Culture,arts_centre,Centre Social Albert Jacquard
node,6380876201,3.0600957,50.6441020,"(50.6441020,3.0600957)",Culture,arts_centre,Centre Social Godeleine Petit
node,6380876202,3.0746251,50.6309176,"(50.6309176,3.0746251)",Culture,arts_centre,Centre social La Busette
way,84404164,3.0591310,50.6175274,"(50.6175274,3.0591310)",Culture,arts_centre,Centre social Marcel Bertrand
node,6380876204,3.0639976,50.6205742,"(50.6205742,3.0639976)",Culture,arts_centre,Centre Social Marcel Bertrand
way,84929383,3.0960693,50.6351415,"(50.6351415,3.0960693)",Culture,arts_centre,Centre Social Mosaïque
node,6380876199,3.0251470,50.6298531,"(50.6298531,3.0251470)",Culture,arts_centre,Centre Social Rosette de Mey
node,4465026118,3.0387626,50.6299725,"(50.6299725,3.0387626)",Culture,community_centre,Centre social Simone Veil - Maison de Quartier Vauban-Esquermes
node,7073232986,3.0862677,50.6322733,"(50.6322733,3.0862677)",Culture,library,Centres de doc environnement - solidarité Internationale
way,85084599,3.1083932,50.6272455,"(50.6272455,3.1083932)",Shopping,retail,Century 21
node,8907411278,3.0692922,50.6293581,"(50.6293581,3.0692922)",Healthcare,laboratory,Cerballiance
node,8972655226,3.0602671,50.6474714,"(50.6474714,3.0602671)",Healthcare,laboratory,Cerballiance
node,9023517970,3.0803528,50.6228346,"(50.6228346,3.0803528)",Healthcare,laboratory,Cerballiance
node,8971544663,3.0706945,50.6401623,"(50.6401623,3.0706945)",Education,University,Cesacom
node,5202232462,3.0573349,50.6306415,"(50.6306415,3.0573349)",Shopping,shoes,César et Rosalie
node,7565373000,3.0705412,50.6279062,"(50.6279062,3.0705412)",Education,University,CESI École d'ingénieurs informatique - campus de Lille
node,6359285221,3.0639508,50.6370549,"(50.6370549,3.0639508)",Shopping,watches,Cestino
node,2403667313,2.9928506,50.6503915,"(50.6503915,2.9928506)",Education,University,CFA public agricole du Nord - Antenne de Lomme
node,4445182607,3.0553466,50.6321980,"(50.6321980,3.0553466)",Entertainment,restaurant,Ch'ti Charivari
node,5719702739,3.0501231,50.6189193,"(50.6189193,3.0501231)",Entertainment,fast_food,Ch'ti Time
node,9122769070,3.0228353,50.6201228,"(50.6201228,3.0228353)",Entertainment,restaurant,Chalet
node,2242643747,3.0669432,50.6194591,"(50.6194591,3.0669432)",Entertainment,fast_food,Chamas Tacos
node,6918809579,3.0511732,50.6370336,"(50.6370336,3.0511732)",Public_transport,platform,Champ de Mars
node,6918809580,3.0524723,50.6369992,"(50.6369992,3.0524723)",Public_transport,platform,Champ de Mars
node,6918809581,3.0528625,50.6365687,"(50.6365687,3.0528625)",Public_transport,platform,Champ de Mars
node,9662441108,3.0623419,50.6386311,"(50.6386311,3.0623419)",Daily_Life,alcohol,Champagne Terroirs Expérience
node,9203254269,3.0565064,50.6304822,"(50.6304822,3.0565064)",Daily_Life,hairdresser,Champions Barber
way,185848575,3.0909204,50.6443417,"(50.6443417,3.0909204)",Religious,church,Chapelle
node,2628885599,3.1036477,50.6341040,"(50.6341040,3.1036477)",Public_transport,platform,Chapelle d'Élocques
way,84942075,3.0838184,50.6513897,"(50.6513897,3.0838184)",Religious,church,Chapelle Notre-Dame du Rosaire
way,41066523,3.0377386,50.6260678,"(50.6260678,3.0377386)",Religious,church,Chapelle Notre-Dame-de-la-Réconciliation
node,5102943822,3.0604098,50.6336021,"(50.6336021,3.0604098)",Shopping,interior_decoration,Charlie
node,9332852616,3.0624658,50.6325134,"(50.6325134,3.0624658)",Entertainment,fast_food,Charly's
node,6581709301,3.0330746,50.6180122,"(50.6180122,3.0330746)",Public_transport,platform,Chasseurs de Driant
node,6581709307,3.0319266,50.6183960,"(50.6183960,3.0319266)",Public_transport,platform,Chasseurs de Driant
node,6581709308,3.0339122,50.6192484,"(50.6192484,3.0339122)",Public_transport,platform,Chasseurs de Driant
node,8149067498,3.0312824,50.6182680,"(50.6182680,3.0312824)",Public_transport,platform,Chasseurs de Driant
node,3113290067,2.9751501,50.6543808,"(50.6543808,2.9751501)",Public_transport,platform,Château du Molinel
node,3113290068,2.9755310,50.6551263,"(50.6551263,2.9755310)",Public_transport,platform,Château du Molinel
node,7419198915,3.0654318,50.6366987,"(50.6366987,3.0654318)",Shopping,shoes,Chauss'momes
node,6171946493,3.0227253,50.6381358,"(50.6381358,3.0227253)",Shopping,shoes,Chaussures Régine
way,65465192,3.0623917,50.6226983,"(50.6226983,3.0623917)",Entertainment,fast_food,Ché Mia
node,5240172487,3.0191142,50.6399060,"(50.6399060,3.0191142)",Daily_Life,butcher,Chevaline
node,7441780972,3.0638124,50.6390798,"(50.6390798,3.0638124)",Shopping,clothes,Chevignon
node,1772705077,3.0542454,50.6325123,"(50.6325123,3.0542454)",Entertainment,fast_food,"Chez ""Kemer"""
node,9391713298,3.0621899,50.6387181,"(50.6387181,3.0621899)",Daily_Life,deli,Chez Alga
way,59287295,3.0546840,50.6243147,"(50.6243147,3.0546840)",Entertainment,restaurant,Chez Bacchus
node,4432802849,3.0504789,50.6255731,"(50.6255731,3.0504789)",Entertainment,bar,Chez Ben
node,9249238122,3.0584630,50.6383654,"(50.6383654,3.0584630)",Entertainment,restaurant,Chez Brigitte
node,8007833524,3.0403385,50.6267061,"(50.6267061,3.0403385)",Entertainment,restaurant,Chez Dino's
node,10135421380,3.0661631,50.6421632,"(50.6421632,3.0661631)",Entertainment,restaurant,Chez Guido
way,77494905,3.0730146,50.6193276,"(50.6193276,3.0730146)",Entertainment,cafe,Chez Joseph
node,2335382478,3.0624293,50.6273474,"(50.6273474,3.0624293)",Entertainment,cafe,Chez Léontine
node,4432698857,3.0499495,50.6267192,"(50.6267192,3.0499495)",Entertainment,bar,Chez Madeleine
node,2990459133,3.0798447,50.6399277,"(50.6399277,3.0798447)",Entertainment,restaurant,Chez Malay
node,5316414395,3.0457504,50.6300246,"(50.6300246,3.0457504)",Entertainment,fast_food,Chez Maurice
node,5267690933,3.0552024,50.6308722,"(50.6308722,3.0552024)",Entertainment,restaurant,Chez Max
node,3381342633,3.1028685,50.6341492,"(50.6341492,3.1028685)",Entertainment,bar,Chez Philippe
node,7446873366,3.0667153,50.6426076,"(50.6426076,3.0667153)",Entertainment,restaurant,Chez Raoul
node,2717259743,3.0937255,50.6319788,"(50.6319788,3.0937255)",Entertainment,pub,Chez Roberto
node,9229747015,3.0237147,50.6376310,"(50.6376310,3.0237147)",Entertainment,restaurant,Chez Tizote
node,1667694590,3.0627610,50.6319054,"(50.6319054,3.0627610)",Daily_Life,hairdresser,Chez Tonio
way,85102275,3.0907256,50.6332052,"(50.6332052,3.0907256)",Entertainment,restaurant,Chez Tonio
node,10036408027,3.0615825,50.6410012,"(50.6410012,3.0615825)",Shopping,clothes,Chez Ugo
node,9138046673,3.0241726,50.6370533,"(50.6370533,3.0241726)",Daily_Life,hairdresser,Chez Youssef
node,6359285195,3.0650189,50.6388698,"(50.6388698,3.0650189)",Shopping,clothes,Chez Zoé
node,5163093746,3.0590319,50.6311184,"(50.6311184,3.0590319)",Entertainment,restaurant,Chiba
node,5894474285,3.0530345,50.6323118,"(50.6323118,3.0530345)",Entertainment,bar,Chicha Purple
node,4085063646,3.0501849,50.6276818,"(50.6276818,3.0501849)",Entertainment,fast_food,Chicken Spot
node,6263863981,3.0696111,50.6378416,"(50.6378416,3.0696111)",Entertainment,restaurant,Chicon pressé
node,3750397994,3.0677395,50.6434066,"(50.6434066,3.0677395)",Entertainment,restaurant,Chiquita Bacana Brasil
node,5509181267,3.0627786,50.6374842,"(50.6374842,3.0627786)",Daily_Life,chocolate,Chocolat Beussent-Lachelle
node,7211744945,3.0652910,50.6392864,"(50.6392864,3.0652910)",Daily_Life,chocolate,Chocolaterie Quentin Bailly
node,6265875535,3.0712483,50.6366537,"(50.6366537,3.0712483)",Entertainment,restaurant,Chopsticks & Co
node,5204529047,3.0495216,50.6274000,"(50.6274000,3.0495216)",Entertainment,restaurant,Chopsticks&Co
node,9163304908,3.0579630,50.6468758,"(50.6468758,3.0579630)",Entertainment,restaurant,Choroni
node,4432802850,3.0496377,50.6254160,"(50.6254160,3.0496377)",Entertainment,bar,Chouga Barrio
way,40784724,3.0662050,50.6301490,"(50.6301490,3.0662050)",Religious,church,Christ Church Lille
node,9985932826,3.0622137,50.6333315,"(50.6333315,3.0622137)",Daily_Life,hairdresser,Christophe Fay
node,4960540123,3.0582751,50.6384860,"(50.6384860,3.0582751)",Entertainment,restaurant,Chtite Brigitte
node,6984716098,3.0362009,50.6131600,"(50.6131600,3.0362009)",Public_transport,platform,CHU – Centre Oscar Lambret
node,8151292380,3.0363290,50.6129614,"(50.6129614,3.0363290)",Public_transport,platform,CHU – Centre Oscar Lambret
node,8151292381,3.0366763,50.6130686,"(50.6130686,3.0366763)",Public_transport,platform,CHU – Centre Oscar Lambret
way,39841726,3.0364459,50.6130864,"(50.6130864,3.0364459)",Public_transport,station,CHU – Centre Oscar Lambret
node,1827950358,3.0393647,50.6075404,"(50.6075404,3.0393647)",Public_transport,platform,CHU – Eurasanté
node,1827950361,3.0393868,50.6078179,"(50.6078179,3.0393868)",Public_transport,platform,CHU – Eurasanté
node,3042750933,3.0391281,50.6081661,"(50.6081661,3.0391281)",Public_transport,platform,CHU – Eurasanté
node,3042750934,3.0388314,50.6079882,"(50.6079882,3.0388314)",Public_transport,platform,CHU – Eurasanté
node,6329309670,3.0391252,50.6079981,"(50.6079981,3.0391252)",Public_transport,platform,CHU – Eurasanté
node,6484247897,3.0385688,50.6071064,"(50.6071064,3.0385688)",Public_transport,platform,CHU – Eurasanté
node,6484247898,3.0387492,50.6073958,"(50.6073958,3.0387492)",Public_transport,platform,CHU – Eurasanté
node,6484247899,3.0388377,50.6081737,"(50.6081737,3.0388377)",Public_transport,platform,CHU – Eurasanté
node,7981288638,3.0520601,50.6324232,"(50.6324232,3.0520601)",Daily_Life,hairdresser,"Chuuut, les coiffeurs travaillent!"
node,1827950366,3.0465274,50.6123333,"(50.6123333,3.0465274)",Public_transport,platform,Cimetière du Sud
node,1827950370,3.0469827,50.6127957,"(50.6127957,3.0469827)",Public_transport,platform,Cimetière du Sud
node,9931883793,3.0662753,50.6410225,"(50.6410225,3.0662753)",Culture,community_centre,CIO
node,6122249948,3.0609651,50.6340523,"(50.6340523,3.0609651)",Entertainment,cafe,Circé
node,6515598009,3.0546701,50.6384374,"(50.6384374,3.0546701)",Public_transport,platform,Citadelle
node,2061506706,3.0724072,50.6371975,"(50.6371975,3.0724072)",Hotel,hotel,Citadines Apart'Hotel
node,9301445108,3.0640687,50.6344260,"(50.6344260,3.0640687)",Shopping,clothes,Citadium
way,36334616,3.0753234,50.6339869,"(50.6339869,3.0753234)",Administration,Mairie,Cité Administrative
node,3084545355,2.9991385,50.6466177,"(50.6466177,2.9991385)",Public_transport,platform,Cité Mouray
node,3084545356,2.9978839,50.6466297,"(50.6466297,2.9978839)",Public_transport,platform,Cité Mouray
node,2061506708,3.0613700,50.6120643,"(50.6120643,3.0613700)",Hotel,hotel,Citotel Nord Hotel
node,2642036230,3.0665208,50.6424543,"(50.6424543,3.0665208)",Entertainment,restaurant,Clair de lune
node,6804995866,3.0618370,50.6379378,"(50.6379378,3.0618370)",Shopping,cosmetics,Clarins
node,9439749917,3.0535988,50.6330895,"(50.6330895,3.0535988)",Entertainment,restaurant,Clasico Argentino
way,42736726,3.0471744,50.6285362,"(50.6285362,3.0471744)",Education,University,Classes préparatoires HEI
node,9026837286,3.0579427,50.6282637,"(50.6282637,3.0579427)",Healthcare,dentist,Claude Caytan
node,7442270827,3.0641181,50.6394647,"(50.6394647,3.0641181)",Shopping,clothes,Claudie Pierlot
node,6032496269,3.0611240,50.6374670,"(50.6374670,3.0611240)",Entertainment,restaurant,Clément Marot
node,2984315700,2.9970740,50.6510699,"(50.6510699,2.9970740)",Public_transport,platform,Clinique de la Mitterie
node,2984315701,2.9970205,50.6511498,"(50.6511498,2.9970205)",Public_transport,platform,Clinique de la Mitterie
node,5942418305,3.0506603,50.6279112,"(50.6279112,3.0506603)",Healthcare,dentist,Clinique dentaire Dentasmile Wazemmes
way,85087645,3.1109986,50.6293577,"(50.6293577,3.1109986)",Culture,community_centre,Club Léo Lagrange
node,8951517491,3.0540657,50.6226084,"(50.6226084,3.0540657)",Entertainment,bar,Club Max
node,7454297246,3.0634327,50.6391683,"(50.6391683,3.0634327)",Shopping,travel_agency,Club Med
node,2995433302,3.0611845,50.6296910,"(50.6296910,3.0611845)",Entertainment,restaurant,Cố đô Huế
node,5455331777,3.0637224,50.6352907,"(50.6352907,3.0637224)",Shopping,clothes,Coco Friendly
node,8313081142,3.0585064,50.6308997,"(50.6308997,3.0585064)",Convenience,beauty,Cocoon's Beauty
node,4915988521,3.0444865,50.6306331,"(50.6306331,3.0444865)",Daily_Life,bakery,Cœur d'épis
node,6194554183,3.0681779,50.6333250,"(50.6333250,3.0681779)",Entertainment,cafe,Coffee Makers
way,59287245,3.0552759,50.6244732,"(50.6244732,3.0552759)",Daily_Life,hairdresser,Coif Top
way,65463445,3.0614225,50.6204975,"(50.6204975,3.0614225)",Daily_Life,hairdresser,Coiff'chic
node,7785636108,3.0442724,50.6246454,"(50.6246454,3.0442724)",Daily_Life,hairdresser,Coiff'Tiff
way,84939744,3.0865710,50.6372161,"(50.6372161,3.0865710)",Daily_Life,hairdresser,Coifferie
node,5056825399,3.0561951,50.6255950,"(50.6255950,3.0561951)",Daily_Life,hairdresser,Coiffeur Zak
node,2717259901,3.0930651,50.6320147,"(50.6320147,3.0930651)",Daily_Life,hairdresser,Coiffur Salim L'artiste
node,3097464314,3.0914163,50.6226231,"(50.6226231,3.0914163)",Daily_Life,hairdresser,Coiffure Aissati
node,9433622441,3.0461672,50.6125911,"(50.6125911,3.0461672)",Daily_Life,hairdresser,Coiffure Isa Style
node,6784658980,3.0484433,50.6271190,"(50.6271190,3.0484433)",Daily_Life,hairdresser,Coiffure Mario
node,7429068420,3.0675855,50.6317281,"(50.6317281,3.0675855)",Daily_Life,hairdresser,Coiffure Pascal Coustenoble
node,5405879894,3.0958701,50.6310861,"(50.6310861,3.0958701)",Daily_Life,hairdresser,Coiffure RK
way,85100442,3.1056432,50.6259376,"(50.6259376,3.1056432)",Daily_Life,hairdresser,Coiffure Sander
node,7864519927,3.0572051,50.6230299,"(50.6230299,3.0572051)",Daily_Life,hairdresser,Coiffure Tensi
node,7467898595,3.0587853,50.6379302,"(50.6379302,3.0587853)",Hotel,hotel,Coke
node,7467898596,3.0587517,50.6378903,"(50.6378903,3.0587517)",Entertainment,restaurant,Coke
node,2612196939,3.0448972,50.6296151,"(50.6296151,3.0448972)",Public_transport,platform,Colbert
node,2612196940,3.0461046,50.6299562,"(50.6299562,3.0461046)",Public_transport,platform,Colbert
node,6985732427,3.0443554,50.6303496,"(50.6303496,3.0443554)",Public_transport,platform,Colbert
node,6985732428,3.0450857,50.6307731,"(50.6307731,3.0450857)",Public_transport,platform,Colbert
way,69721793,3.1188246,50.6291423,"(50.6291423,3.1188246)",Education,College,Collège Antoine de Saint-Exupéry
way,672822650,3.0941618,50.6305693,"(50.6305693,3.0941618)",Education,College,Collège Boris Vian
way,170516931,3.0371634,50.6308561,"(50.6308561,3.0371634)",Education,College,Collège Claude Lévi Strauss
way,834012568,3.0704762,50.6291492,"(50.6291492,3.0704762)",Education,College,Collège Franklin
way,339189273,2.9899889,50.6432975,"(50.6432975,2.9899889)",Education,College,Collège Guy Mollet
way,412062391,2.9853727,50.6477080,"(50.6477080,2.9853727)",Education,College,Collège Jean Zay
way,108765549,3.0468076,50.6055249,"(50.6055249,3.0468076)",Education,College,Collège Louise Michel
way,151205964,3.0849480,50.6389853,"(50.6389853,3.0849480)",Education,College,Collège Martha Desrumaux
way,91095658,3.0443701,50.6240356,"(50.6240356,3.0443701)",Education,College,Collège Nina Simone
node,8009215115,3.0394060,50.6287197,"(50.6287197,3.0394060)",Education,College,Collège privé La Salle
node,1910103698,3.1078273,50.6292101,"(50.6292101,3.1078273)",Education,College,Collège privé Saint-Joseph
way,524482745,3.0498099,50.6333029,"(50.6333029,3.0498099)",Education,College,Collège privé Saint-Paul
way,824786080,3.0450861,50.6288462,"(50.6288462,3.0450861)",Education,College,Collège Privé Thérèse d'Avila
node,5133548891,3.1185770,50.6288234,"(50.6288234,3.1185770)",Slow_transport,bicycle_parking,Collège Saint-Exupéry
node,6605085920,3.1180878,50.6289567,"(50.6289567,3.1180878)",Public_transport,platform,Collège Saint-Exupéry
way,973335235,3.0256820,50.6166649,"(50.6166649,3.0256820)",Education,College,Collège Saint-Joseph
node,6918809577,3.0535168,50.6423384,"(50.6423384,3.0535168)",Public_transport,platform,Colpin
node,6918809578,3.0533100,50.6418067,"(50.6418067,3.0533100)",Public_transport,platform,Colpin
node,6159414358,3.0754289,50.6373398,"(50.6373398,3.0754289)",Entertainment,cafe,Columbus Café & Co
node,8246053479,3.0478987,50.6160573,"(50.6160573,3.0478987)",Entertainment,cafe,Columbus Café & Co
node,9234035314,3.0654707,50.6294814,"(50.6294814,3.0654707)",Entertainment,restaurant,Come Prima
node,5324577312,3.0572253,50.6298202,"(50.6298202,3.0572253)",Culture,theatre,Comédie de Lille
node,2061506846,3.0829422,50.6355823,"(50.6355823,3.0829422)",Hotel,hotel,Comfort Hotel Lille-Europe
node,5316414404,3.0473566,50.6302486,"(50.6302486,3.0473566)",Public_service,police,Commissariat de police de Lille - Bureau de Wazemmes
node,553493914,3.0738518,50.6381864,"(50.6381864,3.0738518)",Public_service,police,Commissariat de police de Lille - Euralille
node,2344912654,3.0972407,50.6341233,"(50.6341233,3.0972407)",Public_service,police,Commissariat de police de Lille - Poste de Fives
way,339575745,3.0488033,50.6017087,"(50.6017087,3.0488033)",Sport,sports_centre,Complexe sportif Driss Berkani
way,84401650,3.0478094,50.6220464,"(50.6220464,3.0478094)",Sport,sports_centre,Complexe sportif Jacqueline Auriol
way,50290776,3.0648568,50.6482946,"(50.6482946,3.0648568)",Sport,sports_centre,Complexe sportif Maryse Bastié
node,4151403290,3.0662314,50.6422166,"(50.6422166,3.0662314)",Entertainment,restaurant,Comptoir 44
node,5976503414,3.0544151,50.6229694,"(50.6229694,3.0544151)",Daily_Life,hairdresser,Comptoir à cheveux
node,7441780960,3.0638747,50.6387081,"(50.6387081,3.0638747)",Shopping,clothes,Comptoir des Cotonniers
node,8968841555,3.0599883,50.6360653,"(50.6360653,3.0599883)",Shopping,travel_agency,Comptoir des voyages
node,6976209435,3.0591933,50.6314006,"(50.6314006,3.0591933)",Daily_Life,deli,Comptoirs de l'Est
node,5383857945,3.0620842,50.6376537,"(50.6376537,3.0620842)",Daily_Life,deli,Comtesse du Barry
node,2917888400,3.0541606,50.6196362,"(50.6196362,3.0541606)",Public_transport,platform,Condé
node,2917888501,3.0540262,50.6197849,"(50.6197849,3.0540262)",Public_transport,platform,Condé
way,39691550,3.0247939,50.6288503,"(50.6288503,3.0247939)",Culture,community_centre,Confluences Local Associatif Partagé
node,8992065630,3.0618331,50.6421428,"(50.6421428,3.0618331)",Culture,music_school,Conservatoire à rayonnement régional de Lille
node,8993536174,3.0710359,50.6282462,"(50.6282462,3.0710359)",Education,University,Conservatoire national des arts et métiers - Institut national des techniques économiques et comptables
node,5383857947,3.0620221,50.6378689,"(50.6378689,3.0620221)",Daily_Life,deli,Conserverie La Belle Illoise
node,9249238125,3.0584577,50.6386801,"(50.6386801,3.0584577)",Shopping,jewelry,Constance L
way,374546610,3.0376426,50.6125043,"(50.6125043,3.0376426)",Healthcare,hospital,Consultation Pathologies Professionnelles
node,5274237699,3.0654623,50.6355522,"(50.6355522,3.0654623)",Shopping,clothes,Cop Copine
way,45911888,3.0636359,50.6374127,"(50.6374127,3.0636359)",Entertainment,restaurant,Coq Hardi
node,7060354785,3.0498028,50.6269578,"(50.6269578,3.0498028)",Shopping,clothes,Coquine
node,6532278473,3.0511101,50.6188928,"(50.6188928,3.0511101)",Entertainment,restaurant,Cordoba
node,1462146142,3.0399100,50.6259803,"(50.6259803,3.0399100)",Public_transport,platform,Cormontaigne
node,2352650610,3.0400151,50.6264927,"(50.6264927,3.0400151)",Public_transport,platform,Cormontaigne
node,6491566443,3.0407824,50.6256691,"(50.6256691,3.0407824)",Public_transport,platform,Cormontaigne
node,6491566444,3.0408398,50.6266358,"(50.6266358,3.0408398)",Public_transport,platform,Cormontaigne
node,1635759514,3.0402998,50.6262355,"(50.6262355,3.0402998)",Public_transport,station,Cormontaigne
node,8979242871,3.0609739,50.6360867,"(50.6360867,3.0609739)",Shopping,shoes,Cosmoparis
node,9249238129,3.0604515,50.6386508,"(50.6386508,3.0604515)",Shopping,interior_decoration,Cosy
node,2036060248,3.0467420,50.6321786,"(50.6321786,3.0467420)",Hotel,hotel,Cosy's Apart'Hotel Lille Vauban
node,6582027851,3.0635729,50.6195971,"(50.6195971,3.0635729)",Daily_Life,butcher,Cote a l'os
node,8781776318,3.0625105,50.6330522,"(50.6330522,3.0625105)",Entertainment,restaurant,Côté Sushi Lille
node,5579032469,3.0614144,50.6396456,"(50.6396456,3.0614144)",Shopping,clothes,Cotélac
node,6042843005,3.0647756,50.6396623,"(50.6396623,3.0647756)",Shopping,shoes,Cothurne
node,5325752875,3.0518624,50.6282307,"(50.6282307,3.0518624)",Convenience,beauty,Couleur Cannelle
node,4713330926,3.0493485,50.6191972,"(50.6191972,3.0493485)",Entertainment,fast_food,Coup de Coeur
node,1827950372,3.0426048,50.6073982,"(50.6073982,3.0426048)",Public_transport,platform,Courbet
node,1827950374,3.0437703,50.6078518,"(50.6078518,3.0437703)",Public_transport,platform,Courbet
node,5163601542,3.0743674,50.6375919,"(50.6375919,3.0743674)",Shopping,shoes,Courir
node,8959318576,3.0630197,50.6319864,"(50.6319864,3.0630197)",Education,University,Cours Diderot
node,5106196932,3.0675660,50.6425938,"(50.6425938,3.0675660)",Shopping,musical_instrument,Couturier et associé
node,5350606164,3.0648209,50.6406667,"(50.6406667,3.0648209)",Shopping,clothes,Cozette
node,5253713774,3.0453112,50.6218780,"(50.6218780,3.0453112)",Daily_Life,hairdresser,Créa'Tiffs
way,60550475,3.0301322,50.6091567,"(50.6091567,3.0301322)",Education,Crèche,"Crèche ""Les Petits Pas"""
node,2231973380,3.0363866,50.6199151,"(50.6199151,3.0363866)",Education,Crèche,Crèche Concorde
way,411936915,3.0559081,50.6419492,"(50.6419492,3.0559081)",Education,Crèche,Crèche Crépin Roland
node,2231973388,3.0619826,50.6258721,"(50.6258721,3.0619826)",Education,Crèche,Crèche d'entreprise Cafarandole
way,85084643,3.0891318,50.6286423,"(50.6286423,3.0891318)",Education,Crèche,Crèche de Fives
way,84938878,3.0955911,50.6347133,"(50.6347133,3.0955911)",Education,Crèche,Crèche de Fives
node,2197663136,3.0697548,50.6207780,"(50.6207780,3.0697548)",Education,Crèche,Crèche La poussinière
node,1019089091,3.0743055,50.6145248,"(50.6145248,3.0743055)",Education,Crèche,Crèche Line Dariel
way,108764582,3.0480178,50.6029796,"(50.6029796,3.0480178)",Education,Crèche,Crèche Marie Curie
node,947011458,3.0734551,50.6327792,"(50.6327792,3.0734551)",Education,Crèche,Crèche Municipale les Marmottes
node,2231973381,3.0791263,50.6285481,"(50.6285481,3.0791263)",Education,Crèche,"Crèche Privée 1,2,3 Soleil"
node,7039298669,3.0822007,50.6273647,"(50.6273647,3.0822007)",Education,Crèche,Crèche Privée Babilou
node,2231973383,3.0687856,50.6375816,"(50.6375816,3.0687856)",Education,Crèche,Crèche Privée les Malicieux de Lille-Flandres
node,2231973385,3.0656976,50.6312211,"(50.6312211,3.0656976)",Education,Crèche,Crèche Privée les Malicieux de Molinel
way,108109431,2.9875550,50.6455730,"(50.6455730,2.9875550)",Daily_Life,bank,Crédit Agricole
node,8975305834,3.0613617,50.6212411,"(50.6212411,3.0613617)",Education,University,Crefo
node,5853256605,3.0566806,50.6263317,"(50.6263317,3.0566806)",Entertainment,fast_food,Crêpe & Waffel
node,2835256530,3.0619763,50.6374364,"(50.6374364,3.0619763)",Entertainment,restaurant,Crêperie Beaurepaire
node,585221173,3.0641154,50.6371325,"(50.6371325,3.0641154)",Entertainment,restaurant,Crèperie La Vieille Bourse
node,674884875,3.0612698,50.6395356,"(50.6395356,3.0612698)",Entertainment,restaurant,"Crêperie Saint-Georges,"
node,9338777644,3.0669277,50.6352095,"(50.6352095,3.0669277)",Shopping,books,Croâfunding
node,5856187373,3.0671798,50.6366398,"(50.6366398,3.0671798)",Shopping,books,Crocbook
node,6984726106,3.0048989,50.6330359,"(50.6330359,3.0048989)",Public_transport,platform,Croix du Temple
node,6984726107,3.0058168,50.6337011,"(50.6337011,3.0058168)",Public_transport,platform,Croix du Temple
way,108188010,3.0054275,50.6452965,"(50.6452965,3.0054275)",Office,office,Croix-Rouge française - Délégation territoriale du Nord
node,4760180321,3.0621206,50.6331545,"(50.6331545,3.0621206)",Entertainment,fast_food,Croque François
node,7785632286,3.0440297,50.6245169,"(50.6245169,3.0440297)",Sport,fitness_centre,CrossFit Vauban
way,65487277,3.0732210,50.6238102,"(50.6238102,3.0732210)",Entertainment,restaurant,CROUS
node,7230131499,3.0840360,50.6373210,"(50.6373210,3.0840360)",Daily_Life,bakery,Croustibaguette
node,7170456425,3.0596876,50.6313831,"(50.6313831,3.0596876)",Entertainment,cafe,Crown Tea
node,9488045768,3.0642144,50.6350945,"(50.6350945,3.0642144)",Entertainment,cafe,Crown Tea
node,9664112601,3.0634945,50.6349707,"(50.6349707,3.0634945)",Daily_Life,deli,Cugino
node,5350608346,3.0605147,50.6384080,"(50.6384080,3.0605147)",Shopping,clothes,Cuir-City.com
node,6511782890,3.0728484,50.6288804,"(50.6288804,3.0728484)",Entertainment,restaurant,Cul de poule
node,6135647785,3.0612856,50.6401185,"(50.6401185,3.0612856)",Shopping,clothes,Culture Denim
way,59287358,3.0556701,50.6249600,"(50.6249600,3.0556701)",Shopping,garden_centre,Culture Indoor
node,9226905452,3.0649158,50.6341188,"(50.6341188,3.0649158)",Slow_transport,bicycle_parking,Cyclopark rue de Béthune
node,7441780966,3.0638291,50.6389739,"(50.6389739,3.0638291)",Shopping,clothes,Cyrillus
node,9683425652,3.0440553,50.6313430,"(50.6313430,3.0440553)",Entertainment,fast_food,D'wich Home
node,8418444926,3.0614815,50.6301424,"(50.6301424,3.0614815)",Entertainment,restaurant,Daehan
node,6133393144,3.0635196,50.6381042,"(50.6381042,3.0635196)",Shopping,jewelry,Dael&Grau
node,5274954650,3.0664097,50.6368482,"(50.6368482,3.0664097)",Shopping,clothes,Damart
node,9488045763,3.0648164,50.6396348,"(50.6396348,3.0648164)",Shopping,clothes,Danie Hoo
node,9488045760,3.0646573,50.6395442,"(50.6395442,3.0646573)",Shopping,jewelry,Danie Hoo
node,3927463776,3.0609947,50.6132736,"(50.6132736,3.0609947)",Shopping,books,Dar Al Imane
node,4445192527,3.0549937,50.6317380,"(50.6317380,3.0549937)",Entertainment,bar,Dark Side Bar
node,6042843009,3.0642139,50.6397664,"(50.6397664,3.0642139)",Shopping,clothes,De Fursac
node,3039757488,3.0573309,50.6048474,"(50.6048474,3.0573309)",Public_transport,platform,De Geyter
node,5162686337,3.0599395,50.6407084,"(50.6407084,3.0599395)",Entertainment,restaurant,De Rode Koe
node,3547107677,3.0655939,50.6293896,"(50.6293896,3.0655939)",Healthcare,doctors,Debomy Alain
node,8849319879,3.0640321,50.6343782,"(50.6343782,3.0640321)",Sport,sports,Decathlon
node,1909997531,3.1092105,50.6175900,"(50.6175900,3.1092105)",Public_transport,platform,Defaux
node,8948387718,3.0474300,50.6155272,"(50.6155272,3.0474300)",Shopping,shoes,Deichmann
node,6259734697,3.0646266,50.6395829,"(50.6395829,3.0646266)",Daily_Life,cheese,Delassic Frères
node,7416484996,3.0681698,50.6343806,"(50.6343806,3.0681698)",Entertainment,fast_food,Délice du Molinel
node,7864519937,3.0542110,50.6227687,"(50.6227687,3.0542110)",Entertainment,restaurant,Délices d'Afrique
way,108187155,3.0095565,50.6441785,"(50.6441785,3.0095565)",Entertainment,restaurant,Delices Wok
node,7593584851,3.0585913,50.6320019,"(50.6320019,3.0585913)",Entertainment,restaurant,Delicia Do Brasil
node,6431771374,3.0548087,50.6324216,"(50.6324216,3.0548087)",Entertainment,bar,Delirium Café
node,3084335573,2.9903070,50.6411621,"(50.6411621,2.9903070)",Public_transport,platform,Délivrance
node,3084335574,2.9901326,50.6411872,"(50.6411872,2.9901326)",Public_transport,platform,Délivrance
node,4649250000,3.1120797,50.6253942,"(50.6253942,3.1120797)",Daily_Life,hairdresser,Delphine coiffure
node,8960780024,3.0591130,50.6462500,"(50.6462500,3.0591130)",Healthcare,dentist,Dentiste
node,8987567597,3.0686448,50.6406548,"(50.6406548,3.0686448)",Healthcare,dentist,Dentiste Drancourt
node,8871444917,3.0693349,50.6351674,"(50.6351674,3.0693349)",Convenience,beauty,Depil tech
node,4432830120,3.0613923,50.6372976,"(50.6372976,3.0613923)",Entertainment,bar,Dernier Bar avant la Fin du Monde
node,2701448673,3.1111535,50.6333576,"(50.6333576,3.1111535)",Public_transport,platform,Derville
node,7618566528,3.0648468,50.6386710,"(50.6386710,3.0648468)",Shopping,clothes,Des Petits Hauts
node,5350608137,3.0647864,50.6385722,"(50.6385722,3.0647864)",Shopping,clothes,Desert
node,5163601537,3.0732743,50.6377759,"(50.6377759,3.0732743)",Shopping,clothes,Desigual
node,9116333481,3.0657820,50.6414248,"(50.6414248,3.0657820)",Shopping,musical_instrument,Desmarchelier-Le Canu
node,4846431899,3.0623587,50.6376908,"(50.6376908,3.0623587)",Daily_Life,hairdresser,Dessange
node,5236135526,3.0670174,50.6360927,"(50.6360927,3.0670174)",Daily_Life,hairdresser,Dessange
node,7441428400,3.0640350,50.6383817,"(50.6383817,3.0640350)",Shopping,clothes,Devernois
node,6335434115,2.9793142,50.6516651,"(50.6516651,2.9793142)",Shopping,clothes,Devianne
node,6875606807,2.9899568,50.6457880,"(50.6457880,2.9899568)",Healthcare,laboratory,DiagnoVie
node,8904642608,3.0681354,50.6238082,"(50.6238082,3.0681354)",Healthcare,laboratory,Diagnovie
node,2927999547,3.0672082,50.6175626,"(50.6175626,3.0672082)",Public_transport,platform,Diderot
node,2927999548,3.0665153,50.6177856,"(50.6177856,3.0665153)",Public_transport,platform,Diderot
node,1670027777,3.0734611,50.6227767,"(50.6227767,3.0734611)",Daily_Life,bakery,Didi
node,9332852612,3.0632212,50.6352093,"(50.6352093,3.0632212)",Entertainment,restaurant,Didie African Food
node,2793929845,3.0828979,50.6445154,"(50.6445154,3.0828979)",Public_transport,platform,Dieu de Marcq
node,2793929846,3.0858417,50.6452906,"(50.6452906,3.0858417)",Public_transport,platform,Dieu de Marcq
node,9394413417,3.0405936,50.6286562,"(50.6286562,3.0405936)",Education,University,Digital College
node,5538696784,3.0619861,50.6369231,"(50.6369231,3.0619861)",Shopping,clothes,Dim
node,5325754223,3.0500076,50.6266325,"(50.6266325,3.0500076)",Entertainment,fast_food,Dina Pâtes Fraiches
node,5435321844,3.0502879,50.6272050,"(50.6272050,3.0502879)",Shopping,clothes,Ding Fring
node,4575796889,3.0554875,50.6324799,"(50.6324799,3.0554875)",Entertainment,restaurant,Dio Ristorante - Lille
node,5405879881,3.0947050,50.6315740,"(50.6315740,3.0947050)",Daily_Life,florist,Dipladenia
node,7624027066,3.0665037,50.6359326,"(50.6359326,3.0665037)",Daily_Life,optician,Direct Optic Lille
way,49917143,3.0676562,50.6419205,"(50.6419205,3.0676562)",Administration,Departement,Direction interrégionale des Douanes
way,84403902,3.0514190,50.6207681,"(50.6207681,3.0514190)",Entertainment,restaurant,Diwan
node,7444485001,3.0657114,50.6416154,"(50.6416154,3.0657114)",Entertainment,bar,Django Beer
node,9595762252,3.0600161,50.6218838,"(50.6218838,3.0600161)",Daily_Life,hairdresser,DJF Barber
node,3423952656,3.0682055,50.6268569,"(50.6268569,3.0682055)",Entertainment,restaurant,DjurDjura
node,3454586545,3.0357945,50.6378880,"(50.6378880,3.0357945)",Healthcare,doctors,Docteur Barbe Virginie
node,4287885696,3.0588739,50.6376683,"(50.6376683,3.0588739)",Healthcare,doctors,Docteur Christophe Allienne
node,5788114792,3.0044388,50.6472067,"(50.6472067,3.0044388)",Healthcare,doctors,Docteur Claude Jablonski
node,3454585703,3.0357005,50.6379974,"(50.6379974,3.0357005)",Healthcare,doctors,Docteur D'Hooghe Philippe
node,2773106635,3.1143799,50.6342374,"(50.6342374,3.1143799)",Public_transport,platform,Docteur Huart
node,8985589771,3.0610478,50.6339051,"(50.6339051,3.0610478)",Healthcare,dentist,Docteur Patricia Bataillon
way,84402003,3.0545418,50.6236328,"(50.6236328,3.0545418)",Healthcare,doctors,Docteur Philippe Cornu Médecine Generale
node,3416721182,3.0163501,50.6404288,"(50.6404288,3.0163501)",Healthcare,doctors,Docteur TRAN
node,6806465022,3.0481332,50.6335846,"(50.6335846,3.0481332)",Entertainment,fast_food,Dog Sandwich
way,42417523,3.0572687,50.6349959,"(50.6349959,3.0572687)",Entertainment,fast_food,Domino's
way,108764486,3.0745617,50.6135946,"(50.6135946,3.0745617)",Entertainment,fast_food,Domino's
node,5317159575,3.0518322,50.6284148,"(50.6284148,3.0518322)",Entertainment,fast_food,Domino's
node,5425635662,3.0807960,50.6232677,"(50.6232677,3.0807960)",Entertainment,fast_food,Domino's
node,2985906529,3.0833848,50.6179410,"(50.6179410,3.0833848)",Sport,fitness_centre,Domyos
node,5163090901,3.0521943,50.6324650,"(50.6324650,3.0521943)",Entertainment,restaurant,Don Emilio Pizza
way,85090111,3.1122274,50.6261446,"(50.6261446,3.1122274)",Entertainment,restaurant,Don Pino Pizza
node,6549853236,3.0637313,50.6407973,"(50.6407973,3.0637313)",Entertainment,cafe,Dona Bica
node,5274237698,3.0655438,50.6354023,"(50.6354023,3.0655438)",Entertainment,fast_food,Donuts & Donuts
node,1653352501,3.0670939,50.6241698,"(50.6241698,3.0670939)",Public_transport,platform,Douai – Arras
node,2917888503,3.0670813,50.6239862,"(50.6239862,3.0670813)",Public_transport,platform,Douai – Arras
node,6524284962,3.0674101,50.6246678,"(50.6246678,3.0674101)",Public_transport,platform,Douai – Arras
node,6524284965,3.0671016,50.6246584,"(50.6246584,3.0671016)",Public_transport,platform,Douai – Arras
node,6905063158,3.0496874,50.6266654,"(50.6266654,3.0496874)",Entertainment,restaurant,Douceurs de Phuket
node,8972711702,3.0559143,50.6424993,"(50.6424993,3.0559143)",Healthcare,dentist,Dr Evelyne Mortazavi
node,6239906989,3.0630465,50.6336491,"(50.6336491,3.0630465)",Shopping,shoes,Dr. Martens
node,5724126434,3.0639924,50.6347160,"(50.6347160,3.0639924)",Shopping,clothes,Draeger
node,9657813117,3.0748347,50.6378679,"(50.6378679,3.0748347)",Shopping,clothes,Draeger
node,9405079217,3.0700177,50.6311062,"(50.6311062,3.0700177)",Daily_Life,hairdresser,Dreadlocks center
node,5163093722,3.0552828,50.6295952,"(50.6295952,3.0552828)",Entertainment,cafe,Dream
node,9983956180,3.0662969,50.6356627,"(50.6356627,3.0662969)",Shopping,clothes,Dress by Nina
node,9979496886,3.0582119,50.6394491,"(50.6394491,3.0582119)",Entertainment,bar,Drugstore Cafe
node,5343505327,3.0616128,50.6351444,"(50.6351444,3.0616128)",Shopping,clothes,Du Pareil au Même
node,7419198911,3.0652870,50.6365269,"(50.6365269,3.0652870)",Shopping,clothes,Du Pareil au Même
node,3547105029,3.0656165,50.6293783,"(50.6293783,3.0656165)",Healthcare,doctors,Dubuis Michel
node,6580674870,2.9890845,50.6433892,"(50.6433892,2.9890845)",Public_transport,platform,Duhoo
node,6580674871,2.9891057,50.6437884,"(50.6437884,2.9891057)",Public_transport,platform,Duhoo
node,7442270839,3.0643981,50.6401647,"(50.6401647,3.0643981)",Daily_Life,optician,Dumesnil Opticiens
node,5162686334,3.0640064,50.6370894,"(50.6370894,3.0640064)",Entertainment,restaurant,Dumplings & Co
node,7507963856,3.0678507,50.6366792,"(50.6366792,3.0678507)",Entertainment,fast_food,Dumplings and Co
node,7820142496,3.0686030,50.6240866,"(50.6240866,3.0686030)",Entertainment,fast_food,Dunky Star Pizza
node,4691245654,3.0909028,50.6334297,"(50.6334297,3.0909028)",Entertainment,restaurant,Dunya
node,2793929847,3.0866174,50.6383422,"(50.6383422,3.0866174)",Public_transport,platform,Dupleix
node,2793929848,3.0843721,50.6391144,"(50.6391144,3.0843721)",Public_transport,platform,Dupleix
node,8987567599,3.0674232,50.6406854,"(50.6406854,3.0674232)",Entertainment,fast_food,Dwich Yourself
node,8953302625,3.0512800,50.6245839,"(50.6245839,3.0512800)",Shopping,travel_agency,Dz Voyages
node,8232675792,3.0653210,50.6353198,"(50.6353198,3.0653210)",Shopping,clothes,Dzfanstore
way,85091267,3.0984916,50.6337805,"(50.6337805,3.0984916)",Daily_Life,supermarket,E. Leclerc
node,6389604143,3.0983767,50.6336596,"(50.6336596,3.0983767)",Daily_Life,supermarket,E. Leclerc
node,8111189388,3.0465510,50.6158450,"(50.6158450,3.0465510)",Daily_Life,supermarket,E. Leclerc
node,6531742948,3.0688164,50.6349288,"(50.6349288,3.0688164)",Daily_Life,supermarket,E. Leclerc Drive
node,7199946899,3.0552973,50.6311154,"(50.6311154,3.0552973)",Daily_Life,supermarket,E. Leclerc Drive
node,2876189642,3.0604698,50.6360028,"(50.6360028,3.0604698)",Entertainment,fast_food,EatSalad
node,6812307923,3.1151283,50.6343604,"(50.6343604,3.1151283)",Convenience,beauty,Eau zone spa
way,108192005,3.0002176,50.6450462,"(50.6450462,3.0002176)",Shopping,vacuum_cleaner,Éco Électro
way,84921695,3.0855926,50.6451046,"(50.6451046,3.0855926)",Shopping,retail,ECO+ Habitat
